timestamp,timestamp_sample,latitude_deg,longitude_deg,altitude_msl_m,altitude_ellipsoid_m,time_utc_usec,device_id,s_variance_m_s,c_variance_rad,eph,epv,hdop,vdop,noise_per_ms,jamming_indicator,vel_m_s,vel_n_m_s,vel_e_m_s,vel_d_m_s,cog_rad,timestamp_time_relative,heading,heading_offset,heading_accuracy,rtcm_injection_rate,automatic_gain_control,fix_type,jamming_state,spoofing_state,vel_ned_valid,satellites_used,selected_rtcm_instance,rtcm_crc_failed,rtcm_msg_used
997455823,0,50.5090887,30.541819399999998,94.029,119.632,1737888194374829,10813445,0.080000006,0.4276753,0.252,0.393,0.45,0.71999997,109,22,0.014,0.012,-0.008,-0.022000002,0.73144567,0,nan,0.0,0.0,0.0,0,4,1,1,1,32,0,0,0
997579162,0,50.5090887,30.541819399999998,94.024,119.62700000000001,1737888194499829,10813445,0.069000006,0.42767566,0.25100002,0.39200002,0.45,0.71999997,109,22,0.014,-0.002,0.013,0.014,0.73144567,0,nan,0.0,0.0,0.0,0,4,1,1,1,32,0,0,0
997701164,0,50.5090887,30.541819399999998,94.024,119.628,1737888194624829,10813445,0.085,0.427676,0.25100002,0.39200002,0.45,0.71999997,109,22,0.010000001,-0.002,-0.010000001,-0.041,0.73144567,0,nan,0.0,0.0,0.0,0,4,1,1,1,32,0,0,0
997825313,0,50.5090887,30.541819399999998,94.021,119.625,1737888194749829,10813445,0.079,0.42767635,0.25100002,0.39100003,0.45,0.71999997,109,22,0.022000002,0.016,0.015000001,-0.027,0.73144567,0,nan,0.0,0.0,0.0,0,4,1,1,1,32,0,0,0
997941166,0,50.5090887,30.5418193,94.024,119.62700000000001,1737888194874829,10813445,0.087000005,0.42767668,0.25,0.39100003,0.45,0.71999997,109,22,0.013,-0.0050000004,-0.011000001,-0.040000003,0.73144567,0,nan,0.0,0.0,0.0,0,4,1,1,1,32,0,0,0
998136283,0,50.5090886,30.541819399999998,94.02,119.62400000000001,1737888194999830,10813445,0.067,0.42767704,0.25,0.39000002,0.45,0.71999997,109,22,0.015000001,-0.006,0.013,0.010000001,0.73144567,0,nan,0.0,0.0,0.0,0,4,1,1,1,32,0,0,0
998326161,0,50.5090886,30.5418193,94.019,119.623,1737888195249829,10813445,0.089,0.42767772,0.25,0.39100003,0.45,0.71999997,109,22,0.016,0.014,-0.008,0.015000001,0.73144567,0,nan,0.0,0.0,0.0,0,4,1,1,1,32,0,0,0
998444245,0,50.5090886,30.5418193,94.015,119.619,1737888195374829,10813445,0.119,0.42767808,0.25,0.39100003,0.45,0.71999997,109,22,0.002,-0.002,0.001,0.049000002,0.73144567,0,nan,0.0,0.0,0.0,0,4,1,1,1,32,0,0,0
998572166,0,50.5090886,30.5418193,94.015,119.61800000000001,1737888195499829,10813445,0.120000005,0.4276786,0.25,0.39100003,0.45,0.71999997,109,22,0.009000001,0.001,0.009000001,0.033,0.73144567,0,nan,0.0,0.0,0.0,0,4,1,1,1,32,0,0,0
998697160,0,50.5090886,30.5418193,94.014,119.61800000000001,1737888195624829,10813445,0.11000001,0.42767912,0.25,0.39100003,0.45,0.71999997,109,22,0.022000002,0.009000001,-0.020000001,0.026,0.73144567,0,nan,0.0,0.0,0.0,0,4,1,1,1,32,0,0,0
998819161,0,50.5090886,30.5418193,94.01,119.613,1737888195749829,10813445,0.112,0.42767948,0.25,0.39100003,0.45,0.71999997,109,22,0.035,-0.018000001,0.030000001,0.058000002,0.73144567,0,nan,0.0,0.0,0.0,0,4,1,1,1,32,0,0,0
998945159,0,50.5090886,30.5418192,94.011,119.614,1737888195874829,10813445,0.11100001,0.42768,0.25,0.39100003,0.45,0.71999997,109,22,0.046000004,0.034,-0.030000001,0.057000004,0.73144567,0,nan,0.0,0.0,0.0,0,4,1,1,1,32,0,0,0
999140167,0,50.5090886,30.5418192,94.015,119.619,1737888195999830,10813445,0.10700001,0.42768052,0.25,0.39100003,0.45,0.7,109,22,0.001,0.001,0.001,0.009000001,0.73144567,0,nan,0.0,0.0,0.0,0,4,1,1,1,32,0,0,0
999319164,0,50.5090886,30.5418192,94.017,119.62,1737888196249829,10813445,0.120000005,0.4276814,0.252,0.393,0.45,0.7,81,20,0.021000002,0.021000002,-0.002,-0.022000002,0.73144567,0,nan,0.0,0.0,0.0,0,4,1,1,1,32,0,0,0
999446165,0,50.5090886,30.541819099999998,94.004,119.608,1737888196374829,10813445,0.119,0.42768195,0.252,0.39200002,0.45,0.7,81,20,0.013,0.012,0.0050000004,0.028,0.73144567,0,nan,0.0,0.0,0.0,0,4,1,1,1,32,0,0,0
999571164,0,50.5090886,30.541819099999998,94.009,119.61200000000001,1737888196499829,10813445,0.11400001,0.42768225,0.252,0.39200002,0.45,0.7,81,20,0.010000001,-0.006,0.008,-0.017,0.73144567,0,nan,0.0,0.0,0.0,0,4,1,1,1,32,0,0,0
999697161,0,50.5090886,30.541819099999998,94.01,119.613,1737888196624829,10813445,0.115,0.4276828,0.25100002,0.39200002,0.45,0.7,81,20,0.016,0.016,-0.003,-0.034,0.73144567,0,nan,0.0,0.0,0.0,0,4,1,1,1,32,0,0,0
999817623,0,50.5090886,30.541819,94.006,119.61,1737888196749829,10813445,0.115,0.42768332,0.25100002,0.39200002,0.45,0.7,81,20,0.007,-0.007,-0.002,-0.019000001,0.73144567,0,nan,0.0,0.0,0.0,0,4,1,1,1,32,0,0,0
999948512,0,50.5090886,30.541819,94.003,119.607,1737888196874829,10813445,0.094000004,0.42768365,0.25100002,0.39200002,0.45,0.7,81,20,0.026,0.024,0.009000001,-0.013,0.73144567,0,nan,0.0,0.0,0.0,0,4,1,1,1,32,0,0,0
1000131165,0,50.5090885,30.541819,94.002,119.60600000000001,1737888196999830,10813445,0.113000005,0.427684,0.25100002,0.39200002,0.45,0.7,81,20,0.016,-0.009000001,0.014,-0.032,0.73144567,0,nan,0.0,0.0,0.0,0,4,1,1,1,32,0,0,0
1000321398,0,50.5090886,30.5418189,94.003,119.607,1737888197249829,10813445,0.128,0.42768508,0.252,0.39400002,0.45,0.7,80,20,0.012,0.012,0.0,-0.022000002,0.73144567,0,nan,0.0,0.0,0.0,0,4,1,1,1,32,0,0,0
1000450326,0,50.5090886,30.541819,94.001,119.604,1737888197374829,10813445,0.095000006,0.4276854,0.252,0.393,0.45,0.7,80,20,0.044000003,0.028,0.034,-0.036000002,0.73144567,0,nan,0.0,0.0,0.0,0,4,1,1,1,32,0,0,0
1000580161,0,50.5090886,30.5418189,93.997,119.60000000000001,1737888197499829,10813445,0.108,0.42768592,0.252,0.393,0.45,0.7,80,20,0.035,0.035,-0.001,-0.044000003,0.73144567,0,nan,0.0,0.0,0.0,0,4,1,1,1,32,0,0,0
1000701168,0,50.5090886,30.5418189,94.002,119.605,1737888197624829,10813445,0.11100001,0.42768648,0.252,0.393,0.45,0.7,80,20,0.046000004,0.031000001,0.034,-0.085,0.73144567,0,nan,0.0,0.0,0.0,0,4,1,1,1,32,0,0,0
1000815326,0,50.5090887,30.541819,94.0,119.60300000000001,1737888197749829,10813445,0.09,0.4276868,0.252,0.393,0.45,0.7,80,20,0.093,0.085,0.039,-0.043,0.73144567,0,nan,0.0,0.0,0.0,0,4,1,1,1,32,0,0,0
1000949161,0,50.5090888,30.541819,93.999,119.602,1737888197874829,10813445,0.093,0.42768717,0.252,0.393,0.45,0.7,80,20,0.053000003,0.049000002,0.019000001,-0.027,0.73144567,0,nan,0.0,0.0,0.0,0,4,1,1,1,32,0,0,0
1001149161,0,50.509088899999995,30.541819,94.005,119.608,1737888197999830,10813445,0.08800001,0.61573786,0.252,0.39200002,0.45,0.7,80,20,0.119,0.11100001,0.041,-0.049000002,0.6079879,0,nan,0.0,0.0,0.0,0,4,1,1,1,32,0,0,0
1001314161,0,50.509088999999996,30.5418192,94.034,119.637,1737888198249829,10813445,0.109000005,0.6157387,0.25300002,0.39400002,0.45,0.7,74,21,0.106000006,0.079,0.071,-0.104,0.6079879,0,nan,0.0,0.0,0.0,0,4,1,1,1,32,0,0,0
1001448168,0,50.5090891,30.5418193,94.036,119.64,1737888198374829,10813445,0.074,0.70259655,0.25300002,0.39400002,0.45,0.7,74,21,0.124000005,0.09,0.086,-0.031000001,0.6756265,0,nan,0.0,0.0,0.0,0,4,1,1,1,32,0,0,0
1001574331,0,50.5090892,30.5418195,94.055,119.659,1737888198499829,10813445,0.095000006,0.70259696,0.25300002,0.39400002,0.45,0.7,74,21,0.11400001,0.064,0.094000004,-0.097,0.6756265,0,nan,0.0,0.0,0.0,0,4,1,1,1,32,0,0,0
1001699166,0,50.5090892,30.5418198,94.07300000000001,119.676,1737888198624829,10813445,0.08800001,0.52927285,0.25300002,0.39400002,0.45,0.7,74,21,0.18100001,0.065000005,0.16800001,-0.12100001,1.0110312,0,nan,0.0,0.0,0.0,0,4,1,1,1,32,0,0,0
1001811250,0,50.5090893,30.541819999999998,94.114,119.718,1737888198749829,10813445,0.104,0.5896703,0.25300002,0.393,0.45,0.7,74,21,0.15300001,0.067,0.13800001,-0.26700002,1.0584924,0,nan,0.0,0.0,0.0,0,4,1,1,1,32,0,0,0
1001949586,0,50.5090894,30.541819999999998,94.165,119.768,1737888198874829,10813445,0.117000006,0.633171,0.25300002,0.393,0.45,0.7,74,21,0.127,0.112,0.060000002,-0.37800002,0.7949207,0,nan,0.0,0.0,0.0,0,4,1,1,1,32,0,0,0
1002129429,0,50.5090897,30.541820299999998,94.215,119.818,1737888198999830,10813445,0.109000005,0.30325758,0.25300002,0.393,0.44,0.7,74,21,0.289,0.21800001,0.19000001,-0.40800002,0.73264956,0,nan,0.0,0.0,0.0,0,4,1,1,1,32,0,0,0
1002309351,0,50.509090199999996,30.5418207,94.34700000000001,119.95,1737888199249829,10813445,0.15100001,0.34730953,0.25500003,0.39600003,0.44,0.7,64,16,0.268,0.246,0.10700001,-0.568,0.5936879,0,nan,0.0,0.0,0.0,0,4,1,1,1,32,0,0,0
1002446161,0,50.5090904,30.5418208,94.44800000000001,120.051,1737888199374829,10813445,0.136,0.54304487,0.25500003,0.39600003,0.45,0.71,64,16,0.16700001,0.15300001,0.069000006,-0.69600004,0.54382765,0,nan,0.0,0.0,0.0,0,4,1,1,1,32,0,0,0
1002568231,0,50.5090906,30.541820899999998,94.554,120.157,1737888199499829,10813445,0.13100001,0.41579884,0.256,0.39600003,0.45,0.71,64,16,0.22700001,0.192,0.120000005,-0.80300003,0.5525986,0,nan,0.0,0.0,0.0,0,4,1,1,1,32,0,0,0
1002692161,0,50.509091,30.541820899999998,94.663,120.266,1737888199624829,10813445,0.13000001,0.26067644,0.256,0.39600003,0.45,0.71,64,16,0.31100002,0.31100002,0.011000001,-0.873,0.18033282,0,nan,0.0,0.0,0.0,0,4,1,1,1,32,0,0,0
1002805161,0,50.5090912,30.541820899999998,94.788,120.391,1737888199749829,10813445,0.134,0.6782531,0.257,0.397,0.45,0.71,64,16,0.13000001,0.12200001,0.043,-0.96500003,0.20015018,0,nan,0.0,0.0,0.0,0,4,1,1,1,32,0,0,0
1002941166,0,50.509091299999994,30.541820899999998,94.923,120.526,1737888199874829,10813445,0.13700001,0.683928,0.257,0.39800003,0.45,0.71,64,16,0.13000001,0.127,0.029000001,-1.057,0.21125326,0,nan,0.0,0.0,0.0,0,4,1,1,1,32,0,0,0
1003132165,0,50.5090916,30.5418208,95.049,120.652,1737888199999830,10813445,0.136,0.3736453,0.25800002,0.39800003,0.45,0.71,64,16,0.21700001,0.21700001,-0.001,-1.0630001,0.04614947,0,nan,0.0,0.0,0.0,0,4,1,1,1,32,0,0,0
1003311647,0,50.509091899999994,30.541820899999998,95.366,120.96900000000001,1737888200249829,10813445,0.136,0.6525767,0.26000002,0.4,0.45,0.71,64,15,0.117000006,0.11400001,0.026,-1.253,0.08917445,0,nan,0.0,0.0,0.0,0,4,1,1,1,32,0,0,0
1003443266,0,50.509091899999994,30.541821,95.532,121.135,1737888200374829,10813445,0.125,0.65258014,0.259,0.4,0.45,0.71,64,15,0.029000001,0.012,0.026,-1.286,0.08917445,0,nan,0.0,0.0,0.0,0,4,1,1,1,32,0,0,0
1003567164,0,50.509091999999995,30.541820899999998,95.667,121.271,1737888200499829,10813445,0.127,0.6525833,0.26000002,0.4,0.45,0.71,64,15,0.060000002,0.057000004,-0.016,-1.2090001,0.08917445,0,nan,0.0,0.0,0.0,0,4,1,1,1,32,0,0,0
1003699161,0,50.509091899999994,30.5418208,95.84,121.443,1737888200624829,10813445,0.12900001,0.65258676,0.26000002,0.40100002,0.45,0.71,64,15,0.095000006,-0.095000006,-0.0050000004,-1.322,0.08917445,0,nan,0.0,0.0,0.0,0,4,1,1,1,32,0,0,0
1003811165,0,50.509091999999995,30.5418208,96.022,121.625,1737888200749829,10813445,0.123,0.70346767,0.26000002,0.4,0.45,0.7,64,15,0.105000004,0.097,-0.040000003,-1.3820001,6.152517,0,nan,0.0,0.0,0.0,0,4,1,1,1,32,0,0,0
1003945161,0,50.509091899999994,30.5418207,96.187,121.79,1737888200874829,10813445,0.12200001,0.703471,0.26000002,0.4,0.44,0.7,64,15,0.037,-0.029000001,-0.022000002,-1.345,6.152517,0,nan,0.0,0.0,0.0,0,4,1,1,1,32,0,0,0
1004124165,0,50.509091899999994,30.541820599999998,96.358,121.961,1737888200999830,10813445,0.12200001,0.7034743,0.26000002,0.4,0.44,0.7,64,15,0.031000001,-0.017,-0.026,-1.3610001,6.152517,0,nan,0.0,0.0,0.0,0,4,1,1,1,32,0,0,0
1004318336,0,50.509091999999995,30.541820299999998,96.69200000000001,122.296,1737888201249829,10813445,0.155,0.7034808,0.26200002,0.40300003,0.45,0.71999997,74,15,0.10300001,0.058000002,-0.085,-1.3490001,6.152517,0,nan,0.0,0.0,0.0,0,4,1,1,1,32,0,0,0
1004448166,0,50.5090918,30.541820299999998,96.86,122.46300000000001,1737888201374829,10813445,0.136,0.73251766,0.26200002,0.40300003,0.45999998,0.72999996,74,15,0.105000004,-0.105000004,0.012,-1.3460001,4.6517873,0,nan,0.0,0.0,0.0,0,4,1,1,1,32,0,0,0
1004571167,0,50.5090918,30.541820299999998,97.028,122.631,1737888201499829,10813445,0.12900001,0.7325206,0.26200002,0.40300003,0.45,0.7,74,15,0.047000002,-0.046000004,0.008,-1.3130001,4.6517873,0,nan,0.0,0.0,0.0,0,4,1,1,1,32,0,0,0
1004695161,0,50.5090917,30.541820299999998,97.167,122.77,1737888201624829,10813445,0.126,0.73252356,0.26200002,0.40300003,0.45,0.7,74,15,0.023000002,0.010000001,0.020000001,-1.215,4.6517873,0,nan,0.0,0.0,0.0,0,4,1,1,1,32,0,0,0
1004820292,0,50.5090918,30.5418204,97.31400000000001,122.917,1737888201749829,10813445,0.128,0.73252636,0.26200002,0.40300003,0.45,0.68,74,15,0.095000006,0.062000003,0.072000004,-1.2010001,4.6517873,0,nan,0.0,0.0,0.0,0,4,1,1,1,32,0,0,0
1004942763,0,50.5090917,30.541820299999998,97.45100000000001,123.054,1737888201874829,10813445,0.13000001,0.732529,0.263,0.40300003,0.45999998,0.71999997,74,15,0.07,-0.060000002,-0.035,-1.154,4.6517873,0,nan,0.0,0.0,0.0,0,4,1,1,1,32,0,0,0
1005140161,0,50.5090917,30.5418205,97.584,123.188,1737888201999830,10813445,0.13100001,0.74505574,0.263,0.404,0.45999998,0.71999997,74,15,0.13700001,-0.057000004,0.125,-1.123,3.3476534,0,nan,0.0,0.0,0.0,0,4,1,1,1,32,0,0,0
1005320161,0,50.5090915,30.5418208,97.85000000000001,123.45400000000001,1737888202249829,10813445,0.15,0.72805256,0.26500002,0.407,0.45999998,0.72999996,73,16,0.115,-0.091000006,0.07,-1.0610001,2.9084852,0,nan,0.0,0.0,0.0,0,4,1,1,1,32,0,0,0
1005445165,0,50.5090915,30.5418208,97.96300000000001,123.566,1737888202374829,10813445,0.13000001,0.72805464,0.26500002,0.40600002,0.45999998,0.71999997,73,16,0.014,0.0,0.014,-0.9480001,2.9084852,0,nan,0.0,0.0,0.0,0,4,1,1,1,32,0,0,0
1005569245,0,50.509091399999996,30.5418208,98.07300000000001,123.676,1737888202499830,10813445,0.13100001,0.7280568,0.26500002,0.40600002,0.45999998,0.72999996,73,16,0.068,-0.065000005,0.020000001,-0.864,2.9084852,0,nan,0.0,0.0,0.0,0,4,1,1,1,32,0,0,0
1005689161,0,50.509091299999994,30.5418208,98.178,123.781,1737888202624830,10813445,0.135,0.7374649,0.266,0.407,0.45999998,0.72999996,73,16,0.10700001,-0.104,0.025,-0.799,2.908821,0,nan,0.0,0.0,0.0,0,4,1,1,1,32,0,0,0
1005818569,0,50.5090911,30.541821,98.276,123.88000000000001,1737888202749830,10813445,0.13700001,0.61688,0.266,0.407,0.45999998,0.72999996,73,16,0.147,-0.11400001,0.09200001,-0.76500005,2.647911,0,nan,0.0,0.0,0.0,0,4,1,1,1,32,0,0,0
1005945470,0,50.5090911,30.5418211,98.384,123.98700000000001,1737888202874830,10813445,0.136,0.616882,0.266,0.40800002,0.45999998,0.72999996,73,16,0.097,-0.042000003,0.087000005,-0.8,2.647911,0,nan,0.0,0.0,0.0,0,4,1,1,1,32,0,0,0
1006128164,0,50.5090909,30.5418211,98.449,124.052,1737888202999831,10813445,0.128,0.38837117,0.26700002,0.40800002,0.45,0.71,73,16,0.20700002,-0.20500001,0.030000001,-0.656,2.8963459,0,nan,0.0,0.0,0.0,0,4,1,1,1,32,0,0,0
1006321162,0,50.5090904,30.5418213,98.619,124.223,1737888203249830,10813445,0.14400001,0.31666258,0.26900002,0.41000003,0.44,0.69,68,15,0.26000002,-0.23900001,0.101,-0.683,2.8033602,0,nan,0.0,0.0,0.0,0,4,1,1,1,32,0,0,0
1006445167,0,50.509090099999995,30.541821199999998,98.68900000000001,124.292,1737888203374830,10813445,0.132,0.29392356,0.26900002,0.411,0.44,0.69,68,15,0.268,-0.26500002,-0.041,-0.59900004,3.0677147,0,nan,0.0,0.0,0.0,0,4,1,1,1,32,0,0,0
1006571165,0,50.509089499999995,30.541821199999998,98.757,124.36,1737888203499830,10813445,0.11000001,0.15932883,0.26900002,0.411,0.44,0.7,68,15,0.49100003,-0.49100003,0.008,-0.53800005,3.1128159,0,nan,0.0,0.0,0.0,0,4,1,1,1,32,0,0,0
1006688165,0,50.5090887,30.5418211,98.803,124.406,1737888203624830,10813445,0.1,0.10617169,0.26900002,0.411,0.45,0.7,68,15,0.74200004,-0.74100006,-0.033,-0.46500003,3.163825,0,nan,0.0,0.0,0.0,0,4,1,1,1,32,0,0,0
1006820229,0,50.509087699999995,30.541820899999998,98.879,124.483,1737888203749830,10813445,0.10300001,0.09106098,0.26900002,0.411,0.44,0.69,68,15,0.873,-0.869,-0.086,-0.546,3.207813,0,nan,0.0,0.0,0.0,0,4,1,1,1,32,0,0,0
1006945166,0,50.5090863,30.5418207,98.924,124.527,1737888203874830,10813445,0.097,0.06503044,0.27,0.411,0.44,0.69,68,15,1.202,-1.2010001,-0.031000001,-0.42400002,3.181161,0,nan,0.0,0.0,0.0,0,4,1,1,1,32,0,0,0
1007139165,0,50.509084699999995,30.5418205,98.973,124.57600000000001,1737888203999831,10813445,0.09200001,0.0535364,0.27,0.411,0.44,0.69,68,15,1.4660001,-1.4610001,-0.12200001,-0.39400002,3.207342,0,nan,0.0,0.0,0.0,0,4,1,1,1,32,0,0,0
1007327225,0,50.5090803,30.5418199,99.06,124.663,1737888204249830,10813445,0.08800001,0.038529888,0.27100003,0.41200003,0.44,0.69,64,15,2.085,-2.0800002,-0.155,-0.31800002,3.2130208,0,nan,0.0,0.0,0.0,0,4,1,1,1,32,0,0,0
1007445164,0,50.5090776,30.541819399999998,99.083,124.686,1737888204374830,10813445,0.091000006,0.033439286,0.27100003,0.41200003,0.44,0.68,64,15,2.403,-2.394,-0.201,-0.24400002,3.2200966,0,nan,0.0,0.0,0.0,0,4,1,1,1,32,0,0,0
1007569164,0,50.5090746,30.5418192,99.093,124.696,1737888204499830,10813445,0.093,0.030179359,0.27100003,0.41200003,0.44,0.68,64,15,2.6990001,-2.696,-0.11800001,-0.18300001,3.2009637,0,nan,0.0,0.0,0.0,0,4,1,1,1,32,0,0,0
1007684165,0,50.5090712,30.5418187,99.11200000000001,124.71600000000001,1737888204624830,10813445,0.095000006,0.027776042,0.27100003,0.41200003,0.44,0.68,64,15,3.009,-3.002,-0.208,-0.17400001,3.2063417,0,nan,0.0,0.0,0.0,0,4,1,1,1,32,0,0,0
1007817165,0,50.5090675,30.5418183,99.114,124.718,1737888204749830,10813445,0.094000004,0.025015978,0.27100003,0.41200003,0.44,0.69,64,15,3.3350003,-3.3300002,-0.18200001,-0.119,3.2007186,0,nan,0.0,0.0,0.0,0,4,1,1,1,32,0,0,0
1007943165,0,50.509063399999995,30.541817799999997,99.12,124.723,1737888204874830,10813445,0.095000006,0.023912057,0.272,0.41200003,0.44,0.69,64,15,3.6100001,-3.6020002,-0.24100001,-0.127,3.204708,0,nan,0.0,0.0,0.0,0,4,1,1,1,32,0,0,0
1008121164,0,50.509059099999995,30.541817299999998,99.114,124.717,1737888204999831,10813445,0.102000006,0.022306178,0.272,0.41200003,0.44,0.69,64,15,3.8530002,-3.8470001,-0.21800001,-0.059000004,3.2012615,0,nan,0.0,0.0,0.0,0,4,1,1,1,31,0,0,0
1008321165,0,50.5090497,30.5418164,99.093,124.696,1737888205249830,10813445,0.101,0.019269481,0.27400002,0.41500002,0.45999998,0.72999996,64,15,4.3380003,-4.3310003,-0.245,0.086,3.1993768,0,nan,0.0,0.0,0.0,0,4,1,1,1,31,0,0,0
1008445175,0,50.509044599999996,30.5418159,99.07600000000001,124.679,1737888205374830,10813445,0.098000005,0.018370463,0.27400002,0.41500002,0.45999998,0.72999996,64,15,4.4750004,-4.4690003,-0.22800002,0.091000006,3.1957068,0,nan,0.0,0.0,0.0,0,4,1,1,1,31,0,0,0
1008570165,0,50.5090394,30.541815399999997,99.062,124.665,1737888205499830,10813445,0.098000005,0.017364105,0.275,0.416,0.45999998,0.72999996,64,15,4.6540003,-4.6460004,-0.266,0.12900001,3.197359,0,nan,0.0,0.0,0.0,0,4,1,1,1,31,0,0,0
1008684213,0,50.509034199999995,30.541815,99.046,124.649,1737888205624830,10813445,0.098000005,0.01674626,0.275,0.416,0.45999998,0.72999996,64,15,4.658,-4.6530004,-0.23400001,0.179,3.1944046,0,nan,0.0,0.0,0.0,0,4,1,1,1,31,0,0,0
1008820161,0,50.5090289,30.5418144,99.018,124.62100000000001,1737888205749830,10813445,0.09900001,0.016407141,0.275,0.416,0.45999998,0.74,64,15,4.7440004,-4.736,-0.28500003,0.216,3.1981819,0,nan,0.0,0.0,0.0,0,4,1,1,1,31,0,0,0
1008948501,0,50.5090235,30.541814,98.99000000000001,124.593,1737888205874830,10813445,0.097,0.015970983,0.275,0.416,0.45999998,0.74,64,15,4.7910004,-4.7850003,-0.24100001,0.22100002,3.1949208,0,nan,0.0,0.0,0.0,0,4,1,1,1,31,0,0,0
1009138161,0,50.5090182,30.5418135,98.956,124.56,1737888205999831,10813445,0.097,0.016150229,0.275,0.416,0.45999998,0.74,64,15,4.7320004,-4.7250004,-0.256,0.24900001,3.195294,0,nan,0.0,0.0,0.0,0,4,1,1,1,31,0,0,0
1009325172,0,50.5090076,30.5418128,98.916,124.52,1737888206249830,10813445,0.097,0.015715642,0.277,0.41900003,0.45999998,0.74,62,14,4.734,-4.7310004,-0.185,0.18400002,3.187325,0,nan,0.0,0.0,0.0,0,4,1,1,1,31,0,0,0
1009449176,0,50.5090023,30.541812399999998,98.884,124.488,1737888206374830,10813445,0.09200001,0.015377223,0.277,0.41900003,0.45999998,0.74,62,14,4.7110004,-4.7060003,-0.20300001,0.256,3.1859136,0,nan,0.0,0.0,0.0,0,4,1,1,1,31,0,0,0
1009578165,0,50.508997099999995,30.541812099999998,98.848,124.45100000000001,1737888206499830,10813445,0.091000006,0.014568263,0.277,0.418,0.45999998,0.74,62,14,4.7200003,-4.717,-0.15100001,0.26700002,3.179167,0,nan,0.0,0.0,0.0,0,4,1,1,1,31,0,0,0
1009691161,0,50.5089918,30.5418117,98.815,124.418,1737888206624830,10813445,0.093,0.014676473,0.277,0.418,0.47,0.74,62,14,4.71,-4.7070003,-0.165,0.264,3.1778264,0,nan,0.0,0.0,0.0,0,4,1,1,1,31,0,0,0
1009834165,0,50.5089865,30.5418114,98.784,124.387,1737888206749830,10813445,0.096,0.0149140125,0.277,0.418,0.45999998,0.74,62,14,4.7250004,-4.721,-0.18800001,0.259,3.1796522,0,nan,0.0,0.0,0.0,0,4,1,1,1,31,0,0,0
1009951177,0,50.5089812,30.541811,98.75,124.35300000000001,1737888206874830,10813445,0.096,0.014727263,0.27600002,0.418,0.45999998,0.74,62,14,4.723,-4.7190003,-0.18100001,0.28800002,3.179799,0,nan,0.0,0.0,0.0,0,4,1,1,1,31,0,0,0
1010125161,0,50.508975899999996,30.5418107,98.712,124.316,1737888206999831,10813445,0.096,0.014513982,0.27600002,0.418,0.45999998,0.74,62,14,4.7700005,-4.7660003,-0.18,0.296,3.1795573,0,nan,0.0,0.0,0.0,0,4,1,1,1,31,0,0,0
1010331161,0,50.5089651,30.5418098,98.656,124.26,1737888207249830,10813445,0.097,0.014314841,0.27800003,0.42000002,0.47,0.74,62,15,4.806,-4.7990003,-0.25100002,0.238,3.1873662,0,nan,0.0,0.0,0.0,0,4,1,1,1,31,0,0,0
1010449165,0,50.5089598,30.541809399999998,98.613,124.21600000000001,1737888207374830,10813445,0.095000006,0.014336133,0.27800003,0.42000002,0.45999998,0.74,62,15,4.7780004,-4.7720003,-0.23400001,0.34,3.1890483,0,nan,0.0,0.0,0.0,0,4,1,1,1,31,0,0,0
1010574179,0,50.5089544,30.5418089,98.599,124.203,1737888207499830,10813445,0.096,0.0144319525,0.27800003,0.42000002,0.45999998,0.74,62,15,4.829,-4.821,-0.27400002,0.224,3.193807,0,nan,0.0,0.0,0.0,0,4,1,1,1,31,0,0,0
1010690165,0,50.508949,30.541808399999997,98.572,124.175,1737888207624830,10813445,0.097,0.014480823,0.27800003,0.42100003,0.45999998,0.74,62,15,4.8180003,-4.8100004,-0.26900002,0.272,3.195659,0,nan,0.0,0.0,0.0,0,4,1,1,1,31,0,0,0
1010821166,0,50.508943599999995,30.541808099999997,98.566,124.17,1737888207749830,10813445,0.096,0.014315016,0.27800003,0.42100003,0.45999998,0.74,62,15,4.8500004,-4.8450003,-0.21800001,0.19900002,3.1909225,0,nan,0.0,0.0,0.0,0,4,1,1,1,31,0,0,0
1010948273,0,50.508938199999996,30.5418077,98.539,124.142,1737888207874830,10813445,0.098000005,0.014375753,0.27800003,0.42100003,0.45999998,0.74,62,15,4.8500004,-4.8440003,-0.23400001,0.259,3.1903667,0,nan,0.0,0.0,0.0,0,4,1,1,1,31,0,0,0
1011127165,0,50.5089328,30.5418074,98.523,124.12700000000001,1737888207999831,10813445,0.098000005,0.014408391,0.27800003,0.42100003,0.48999998,0.78,62,15,4.827,-4.822,-0.21400002,0.20600002,3.1880333,0,nan,0.0,0.0,0.0,0,4,1,1,1,31,0,0,0
1011327170,0,50.508922,30.5418067,98.48700000000001,124.09100000000001,1737888208249830,10813445,0.09900001,0.014553078,0.279,0.423,0.48999998,0.78,62,14,4.8300004,-4.8250003,-0.22100002,0.15100001,3.1877153,0,nan,0.0,0.0,0.0,0,4,1,1,1,31,0,0,0
1011447165,0,50.5089165,30.5418064,98.47500000000001,124.07900000000001,1737888208374830,10813445,0.097,0.01419197,0.279,0.423,0.48999998,0.77,62,14,4.8960004,-4.892,-0.18900001,0.11800001,3.1836805,0,nan,0.0,0.0,0.0,0,4,1,1,1,31,0,0,0
1011568161,0,50.5089111,30.5418061,98.483,124.086,1737888208499830,10813445,0.096,0.014273302,0.279,0.423,0.48999998,0.77,62,14,4.8450003,-4.841,-0.18,0.018000001,3.181146,0,nan,0.0,0.0,0.0,0,4,1,1,1,31,0,0,0
1011698164,0,50.5089057,30.5418059,98.47200000000001,124.07600000000001,1737888208624830,10813445,0.094000004,0.014193366,0.279,0.423,0.48999998,0.77,62,14,4.8120003,-4.8100004,-0.13800001,0.061000004,3.1754856,0,nan,0.0,0.0,0.0,0,4,1,1,1,31,0,0,0
1011824287,0,50.5089003,30.541805699999998,98.486,124.09,1737888208749830,10813445,0.093,0.014198427,0.279,0.423,0.48999998,0.77,62,14,4.8170004,-4.8160005,-0.11800001,-0.037,3.1705625,0,nan,0.0,0.0,0.0,0,4,1,1,1,31,0,0,0
1011947165,0,50.508894899999994,30.5418056,98.48400000000001,124.087,1737888208874830,10813445,0.094000004,0.014432651,0.279,0.423,0.48999998,0.77,62,14,4.768,-4.767,-0.098000005,-0.001,3.1662512,0,nan,0.0,0.0,0.0,0,4,1,1,1,31,0,0,0
1012110165,0,50.508889499999995,30.541805399999998,98.47800000000001,124.08200000000001,1737888208999831,10813445,0.093,0.014484312,0.279,0.423,0.48999998,0.77,62,14,4.8110003,-4.8100004,-0.106000006,0.045,3.1649396,0,nan,0.0,0.0,0.0,0,4,1,1,1,31,0,0,0
1012196164,0,50.5088843,30.5418052,98.49000000000001,124.093,1737888209124830,10813445,0.09200001,0.0146689685,0.279,0.423,0.48999998,0.77,62,14,4.7200003,-4.7190003,-0.081,-0.029000001,3.1617315,0,nan,0.0,0.0,0.0,0,4,1,1,1,31,0,0,0
1012324174,0,50.508879,30.541805,98.49000000000001,124.093,1737888209249830,10813445,0.093,0.014421829,0.279,0.423,0.48999998,0.77,62,15,4.734,-4.7330003,-0.125,0.010000001,3.1649814,0,nan,0.0,0.0,0.0,0,4,1,1,1,31,0,0,0
1012446182,0,50.5088736,30.541804799999998,98.497,124.10000000000001,1737888209374830,10813445,0.093,0.014447137,0.279,0.423,0.48999998,0.77,62,15,4.76,-4.7580004,-0.12100001,-0.030000001,3.1660886,0,nan,0.0,0.0,0.0,0,4,1,1,1,31,0,0,0
1012565160,0,50.508868299999996,30.541804499999998,98.492,124.096,1737888209499830,10813445,0.094000004,0.014438061,0.27800003,0.423,0.48999998,0.77,62,15,4.727,-4.7250004,-0.124000005,0.021000002,3.1669521,0,nan,0.0,0.0,0.0,0,4,1,1,1,31,0,0,0
1012700211,0,50.508863,30.541804199999998,98.496,124.099,1737888209624830,10813445,0.094000004,0.014215707,0.27800003,0.423,0.48999998,0.77,62,15,4.76,-4.7580004,-0.165,0.001,3.1718116,0,nan,0.0,0.0,0.0,0,4,1,1,1,31,0,0,0
1012828161,0,50.5088577,30.541803899999998,98.495,124.099,1737888209749830,10813445,0.094000004,0.014217801,0.27800003,0.423,0.48999998,0.77,62,15,4.7510004,-4.748,-0.16800001,0.010000001,3.1744893,0,nan,0.0,0.0,0.0,0,4,1,1,1,31,0,0,0
1012950164,0,50.5088523,30.5418035,98.499,124.102,1737888209874830,10813445,0.091000006,0.0140218,0.27800003,0.423,0.48999998,0.77,62,15,4.809,-4.8040004,-0.201,-0.017,3.179165,0,nan,0.0,0.0,0.0,0,4,1,1,1,31,0,0,0
1013130165,0,50.508846899999995,30.5418032,98.507,124.11,1737888209999831,10813445,0.086,0.013323494,0.27800003,0.423,0.48999998,0.77,62,15,4.821,-4.8190002,-0.16100001,-0.020000001,3.1769009,0,nan,0.0,0.0,0.0,0,4,1,1,1,31,0,0,0
1013326165,0,50.508836099999996,30.541802599999997,98.51,124.114,1737888210249830,10813445,0.09,0.01322593,0.279,0.42400002,0.48999998,0.77,62,15,4.848,-4.8450003,-0.162,0.003,3.1759105,0,nan,0.0,0.0,0.0,0,4,1,1,1,31,0,0,0
1013451165,0,50.508830599999996,30.541802399999998,98.524,124.128,1737888210374830,10813445,0.086,0.0129588945,0.279,0.42400002,0.48999998,0.77,62,15,4.847,-4.8450003,-0.124000005,-0.048,3.1712878,0,nan,0.0,0.0,0.0,0,4,1,1,1,31,0,0,0
1013564166,0,50.5088252,30.541802099999998,98.525,124.129,1737888210499830,10813445,0.086,0.012943885,0.279,0.42400002,0.48999998,0.78,62,15,4.8320003,-4.829,-0.149,-0.010000001,3.171856,0,nan,0.0,0.0,0.0,0,4,1,1,1,31,0,0,0
1013700185,0,50.5088198,30.5418018,98.537,124.141,1737888210624830,10813445,0.086,0.0130410995,0.279,0.423,0.48999998,0.78,62,15,4.827,-4.8250003,-0.158,-0.062000003,3.1731277,0,nan,0.0,0.0,0.0,0,4,1,1,1,31,0,0,0
1013828168,0,50.5088144,30.5418015,98.536,124.14,1737888210749830,10813445,0.087000005,0.012991882,0.27800003,0.423,0.48999998,0.78,62,15,4.841,-4.839,-0.13800001,-0.013,3.1715214,0,nan,0.0,0.0,0.0,0,4,1,1,1,31,0,0,0
1013951166,0,50.508809,30.5418012,98.546,124.15,1737888210874831,10813445,0.089,0.013077054,0.27800003,0.423,0.48999998,0.78,62,15,4.8,-4.7970004,-0.16700001,-0.037,3.1740272,0,nan,0.0,0.0,0.0,0,4,1,1,1,31,0,0,0
1014121164,0,50.5088036,30.5418009,98.557,124.16,1737888210999832,10813445,0.08400001,0.01261489,0.27800003,0.42200002,0.48999998,0.78,62,15,4.7980003,-4.795,-0.171,-0.086,3.1757605,0,nan,0.0,0.0,0.0,0,4,1,1,1,31,0,0,0
1014329161,0,50.508792899999996,30.541800199999997,98.58500000000001,124.18900000000001,1737888211249831,10813445,0.082,0.012126547,0.27800003,0.423,0.48999998,0.78,58,15,4.796,-4.793,-0.17600001,-0.12200001,3.1772077,0,nan,0.0,0.0,0.0,0,4,1,1,1,31,0,0,0
1014451166,0,50.5087875,30.5417998,98.581,124.185,1737888211374831,10813445,0.08400001,0.012522213,0.27800003,0.423,0.48999998,0.78,58,15,4.8050003,-4.801,-0.18900001,-0.045,3.1791139,0,nan,0.0,0.0,0.0,0,4,1,1,1,31,0,0,0
1014563167,0,50.5087821,30.5417994,98.59,124.193,1737888211499831,10813445,0.080000006,0.01234227,0.27800003,0.423,0.48,0.78999996,58,15,4.8170004,-4.813,-0.18400002,-0.061000004,3.179438,0,nan,0.0,0.0,0.0,0,4,1,1,1,31,0,0,0
1014699211,0,50.5087766,30.541798999999997,98.596,124.2,1737888211624831,10813445,0.081,0.0123234205,0.277,0.42200002,0.48,0.78,58,15,4.833,-4.828,-0.20400001,-0.079,3.1817627,0,nan,0.0,0.0,0.0,0,4,1,1,1,31,0,0,0
1014829164,0,50.5087712,30.5417985,98.59400000000001,124.197,1737888211749831,10813445,0.081,0.012452574,0.277,0.42200002,0.48,0.78,58,15,4.8050003,-4.7990003,-0.24900001,-0.025,3.1878433,0,nan,0.0,0.0,0.0,0,4,1,1,1,31,0,0,0
1014951166,0,50.5087658,30.541798,98.595,124.199,1737888211874831,10813445,0.082,0.012426569,0.277,0.42200002,0.48,0.78,58,15,4.872,-4.8650002,-0.254,-0.027,3.1909256,0,nan,0.0,0.0,0.0,0,4,1,1,1,31,0,0,0
1015131165,0,50.5087603,30.541797499999998,98.601,124.205,1737888211999832,10813445,0.083000004,0.012749106,0.277,0.42100003,0.48,0.78,58,15,4.8310003,-4.8240004,-0.27100003,-0.014,3.194433,0,nan,0.0,0.0,0.0,0,4,1,1,1,31,0,0,0
1015325184,0,50.5087494,30.5417965,98.601,124.205,1737888212249831,10813445,0.085,0.012820316,0.27800003,0.423,0.48,0.78,57,15,4.8490005,-4.8430004,-0.252,0.031000001,3.1939654,0,nan,0.0,0.0,0.0,0,4,1,1,1,31,0,0,0
1015447164,0,50.5087439,30.5417961,98.622,124.22500000000001,1737888212374831,10813445,0.083000004,0.012415225,0.277,0.42200002,0.48,0.78,57,15,4.934,-4.9290004,-0.223,-0.030000001,3.1900828,0,nan,0.0,0.0,0.0,0,4,1,1,1,31,0,0,0
1015561165,0,50.5087384,30.5417955,98.632,124.236,1737888212499831,10813445,0.08400001,0.012511567,0.277,0.42200002,0.48,0.78,57,15,4.885,-4.8770003,-0.272,-0.069000006,3.193835,0,nan,0.0,0.0,0.0,0,4,1,1,1,31,0,0,0
1015700164,0,50.5087329,30.541794999999997,98.634,124.238,1737888212624831,10813445,0.09,0.012978965,0.277,0.42200002,0.48,0.78,57,15,4.881,-4.874,-0.26000002,-0.09,3.1944175,0,nan,0.0,0.0,0.0,0,4,1,1,1,31,0,0,0
1015825367,0,50.5087274,30.541794399999997,98.64,124.244,1737888212749831,10813445,0.08800001,0.012784361,0.277,0.42200002,0.48999998,0.78,57,15,4.905,-4.8960004,-0.303,-0.11800001,3.199193,0,nan,0.0,0.0,0.0,0,4,1,1,1,31,0,0,0
1015949169,0,50.5087219,30.5417937,98.65,124.253,1737888212874831,10813445,0.08400001,0.012683134,0.277,0.42200002,0.48999998,0.78,57,15,4.933,-4.92,-0.35300002,-0.094000004,3.2065883,0,nan,0.0,0.0,0.0,0,4,1,1,1,31,0,0,0
1016131161,0,50.508716299999996,30.5417931,98.664,124.268,1737888212999832,10813445,0.08400001,0.012569511,0.277,0.42100003,0.48999998,0.78,57,15,4.9490004,-4.938,-0.33400002,-0.109000005,3.2079217,0,nan,0.0,0.0,0.0,0,4,1,1,1,31,0,0,0
1016328165,0,50.5087051,30.5417919,98.682,124.285,1737888213249831,10813445,0.089,0.012707916,0.27800003,0.423,0.48999998,0.78,57,15,5.0010004,-4.9900002,-0.32500002,-0.067,3.2072506,0,nan,0.0,0.0,0.0,0,4,1,1,1,31,0,0,0
1016445193,0,50.5086996,30.5417912,98.69800000000001,124.302,1737888213374831,10813445,0.089,0.013198179,0.27800003,0.423,0.48999998,0.78,57,15,4.959,-4.947,-0.33600003,-0.132,3.208358,0,nan,0.0,0.0,0.0,0,4,1,1,1,31,0,0,0
1016564165,0,50.5086939,30.5417906,98.699,124.303,1737888213499831,10813445,0.089,0.013077227,0.277,0.423,0.48999998,0.78,57,15,5.0030003,-4.993,-0.324,-0.043,3.2073393,0,nan,0.0,0.0,0.0,0,4,1,1,1,31,0,0,0
1016699165,0,50.508688299999996,30.54179,98.711,124.315,1737888213624831,10813445,0.089,0.012956626,0.277,0.42200002,0.48999998,0.78,57,15,5.0400004,-5.031,-0.305,-0.068,3.204608,0,nan,0.0,0.0,0.0,0,4,1,1,1,31,0,0,0
1016821161,0,50.5086826,30.541789299999998,98.71300000000001,124.31700000000001,1737888213749831,10813445,0.085,0.012932366,0.277,0.42200002,0.48999998,0.77,57,15,5.0350003,-5.0230002,-0.34100002,-0.058000002,3.207106,0,nan,0.0,0.0,0.0,0,4,1,1,1,31,0,0,0
1016947166,0,50.508677,30.541788699999998,98.72500000000001,124.32900000000001,1737888213874831,10813445,0.085,0.012978616,0.277,0.42200002,0.47,0.72999996,57,15,4.9960003,-4.9870005,-0.30100003,-0.063,3.2044113,0,nan,0.0,0.0,0.0,0,4,1,1,1,31,0,0,0
1017138165,0,50.5086714,30.541788099999998,98.72500000000001,124.32900000000001,1737888213999832,10813445,0.08400001,0.012578587,0.277,0.42200002,0.47,0.72999996,57,15,5.0270004,-5.017,-0.32700002,-0.035,3.205682,0,nan,0.0,0.0,0.0,0,4,1,1,1,31,0,0,0
1017331161,0,50.5086601,30.541787,98.721,124.324,1737888214249831,10813445,0.086,0.012660095,0.27800003,0.423,0.47,0.72999996,58,15,5.0410004,-5.032,-0.296,0.034,3.202755,0,nan,0.0,0.0,0.0,0,4,1,1,1,31,0,0,0
1017446230,0,50.5086545,30.5417864,98.756,124.36,1737888214374831,10813445,0.08400001,0.012697969,0.27800003,0.423,0.48,0.74,58,15,4.959,-4.952,-0.26700002,-0.075,3.198896,0,nan,0.0,0.0,0.0,0,4,1,1,1,31,0,0,0
1017575181,0,50.5086489,30.541785899999997,98.751,124.355,1737888214499831,10813445,0.085,0.0127690025,0.277,0.42200002,0.47,0.74,58,15,4.9810004,-4.9740005,-0.26500002,0.021000002,3.196799,0,nan,0.0,0.0,0.0,0,4,1,1,1,31,0,0,0
1017705161,0,50.508643299999996,30.5417854,98.771,124.375,1737888214624831,10813445,0.083000004,0.012671962,0.277,0.42200002,0.47,0.74,58,15,5.011,-5.004,-0.254,-0.102000006,3.194438,0,nan,0.0,0.0,0.0,0,4,1,1,1,31,0,0,0
1017830539,0,50.508637799999995,30.5417849,98.774,124.378,1737888214749831,10813445,0.085,0.012994848,0.277,0.42200002,0.47,0.74,58,15,4.938,-4.931,-0.25100002,-0.079,3.1934662,0,nan,0.0,0.0,0.0,0,4,1,1,1,31,0,0,0
1017947285,0,50.508632299999995,30.5417843,98.789,124.392,1737888214874831,10813445,0.086,0.013118069,0.277,0.42200002,0.47,0.72999996,58,15,4.932,-4.9220004,-0.307,-0.13000001,3.1988647,0,nan,0.0,0.0,0.0,0,4,1,1,1,31,0,0,0
1018148161,0,50.5086267,30.5417837,98.794,124.398,1737888214999832,10813445,0.080000006,0.012689067,0.27600002,0.42100003,0.47,0.72999996,58,15,4.965,-4.958,-0.26900002,-0.076000005,3.197175,0,nan,0.0,0.0,0.0,0,4,1,1,1,31,0,0,0
1018334182,0,50.5086156,30.541782599999998,98.824,124.428,1737888215249831,10813445,0.081,0.013010556,0.277,0.42200002,0.47,0.72999996,58,16,4.9370003,-4.926,-0.333,-0.12100001,3.2035398,0,nan,0.0,0.0,0.0,0,4,1,1,1,31,0,0,0
1018447178,0,50.50861,30.5417819,98.821,124.425,1737888215374831,10813445,0.081,0.012841085,0.277,0.42200002,0.47,0.72999996,58,16,4.958,-4.947,-0.33,-0.049000002,3.2060573,0,nan,0.0,0.0,0.0,0,4,1,1,1,31,0,0,0
1018581161,0,50.508604399999996,30.5417813,98.824,124.428,1737888215499831,10813445,0.080000006,0.012589409,0.27600002,0.42100003,0.47,0.72999996,58,16,4.953,-4.9430003,-0.317,-0.031000001,3.2058387,0,nan,0.0,0.0,0.0,0,4,1,1,1,31,0,0,0
1018705166,0,50.508598899999996,30.5417807,98.828,124.432,1737888215624831,10813445,0.08400001,0.012744743,0.27600002,0.42100003,0.47,0.72999996,58,16,4.933,-4.9220004,-0.33100003,-0.021000002,3.2073495,0,nan,0.0,0.0,0.0,0,4,1,1,1,31,0,0,0
1018826165,0,50.5085933,30.541780099999997,98.834,124.438,1737888215749831,10813445,0.08400001,0.012577016,0.27600002,0.42100003,0.47,0.74,58,16,4.971,-4.9620004,-0.3,-0.015000001,3.2045403,0,nan,0.0,0.0,0.0,0,4,1,1,1,31,0,0,0
1018941161,0,50.5085878,30.541779499999997,98.836,124.44,1737888215874831,10813445,0.083000004,0.012480674,0.275,0.42000002,0.47,0.74,58,16,4.958,-4.9490004,-0.28800002,-0.012,3.2019355,0,nan,0.0,0.0,0.0,0,4,1,1,1,31,0,0,0
1019155161,0,50.5085821,30.541778899999997,98.831,124.435,1737888215999832,10813445,0.083000004,0.012314519,0.275,0.42000002,0.47,0.74,58,16,5.025,-5.0150003,-0.316,0.023000002,3.2033625,0,nan,0.0,0.0,0.0,0,4,1,1,1,31,0,0,0
1019329161,0,50.5085708,30.5417779,98.82900000000001,124.433,1737888216249831,10813445,0.08400001,0.012445767,0.27600002,0.42100003,0.47,0.74,57,14,5.0210004,-5.0140004,-0.257,-0.016,3.1975608,0,nan,0.0,0.0,0.0,0,4,1,1,1,31,0,0,0
1019439165,0,50.5085652,30.541777399999997,98.85600000000001,124.46000000000001,1737888216374831,10813445,0.082,0.012526576,0.27600002,0.42100003,0.47,0.74,57,14,5.0,-4.993,-0.246,-0.187,3.194064,0,nan,0.0,0.0,0.0,0,4,1,1,1,31,0,0,0
1019576167,0,50.5085596,30.541777,98.852,124.456,1737888216499831,10813445,0.08400001,0.012263556,0.275,0.42000002,0.47,0.74,57,14,5.0220003,-5.018,-0.201,-0.072000004,3.187431,0,nan,0.0,0.0,0.0,0,4,1,1,1,31,0,0,0
1019711161,0,50.508553799999994,30.541776499999997,98.84700000000001,124.45100000000001,1737888216624831,10813445,0.087000005,0.012557469,0.275,0.42000002,0.47,0.74,57,14,5.0870004,-5.0810003,-0.24400002,-0.014,3.1885843,0,nan,0.0,0.0,0.0,0,4,1,1,1,31,0,0,0
1019835198,0,50.5085483,30.5417763,98.877,124.48100000000001,1737888216749831,10813445,0.087000005,0.013109341,0.275,0.42000002,0.47,0.74,57,14,4.9550004,-4.953,-0.15200001,-0.15200001,3.1804059,0,nan,0.0,0.0,0.0,0,4,1,1,1,31,0,0,0
1019943382,0,50.5085426,30.541775899999998,98.866,124.47,1737888216874831,10813445,0.089,0.013267644,0.275,0.42000002,0.47,0.74,57,14,5.025,-5.0210004,-0.18800001,0.0,3.1796575,0,nan,0.0,0.0,0.0,0,4,1,1,1,31,0,0,0
1020180161,0,50.508536899999996,30.541775599999998,98.888,124.492,1737888216999832,10813445,0.091000006,0.013439035,0.275,0.42000002,0.47,0.74,57,14,5.0210004,-5.019,-0.13100001,-0.113000005,3.1734493,0,nan,0.0,0.0,0.0,0,4,1,1,1,31,0,0,0
1020348067,0,50.5085257,30.541774999999998,98.906,124.51,1737888217249831,10813445,0.098000005,0.014214659,0.27600002,0.42100003,0.47,0.74,66,15,5.0140004,-5.011,-0.171,-0.061000004,3.1746469,0,nan,0.0,0.0,0.0,0,4,1,1,1,31,0,0,0
1020451161,0,50.50852,30.541774699999998,98.91,124.514,1737888217374831,10813445,0.098000005,0.013839413,0.27600002,0.42100003,0.47,0.74,66,15,5.0690002,-5.0670004,-0.13900001,-0.037,3.1716838,0,nan,0.0,0.0,0.0,0,4,1,1,1,31,0,0,0
1020605423,0,50.508514299999995,30.5417743,98.93,124.535,1737888217499831,10813445,0.098000005,0.013949194,0.27600002,0.42100003,0.47,0.74,66,15,5.052,-5.0480003,-0.19700001,-0.109000005,3.1762867,0,nan,0.0,0.0,0.0,0,4,1,1,1,31,0,0,0
1020729165,0,50.5085086,30.541774,98.943,124.547,1737888217624831,10813445,0.095000006,0.013531712,0.27600002,0.42100003,0.47,0.74,66,15,5.045,-5.043,-0.15300001,-0.11800001,3.1739976,0,nan,0.0,0.0,0.0,0,4,1,1,1,31,0,0,0
1020855184,0,50.508503,30.5417737,98.956,124.56,1737888217749831,10813445,0.097,0.013460328,0.27600002,0.42100003,0.47,0.74,66,15,5.018,-5.0160003,-0.149,-0.126,3.1725729,0,nan,0.0,0.0,0.0,0,4,1,1,1,31,0,0,0
1020959161,0,50.508497299999995,30.5417734,98.961,124.565,1737888217874831,10813445,0.097,0.0135594625,0.27600002,0.42100003,0.47,0.74,66,15,5.0600004,-5.058,-0.163,-0.074,3.1732528,0,nan,0.0,0.0,0.0,0,4,1,1,1,31,0,0,0
1021189478,0,50.5084917,30.541773,98.96300000000001,124.56700000000001,1737888217999832,10813445,0.097,0.013751623,0.27600002,0.42100003,0.48,0.74,66,15,4.991,-4.9870005,-0.193,-0.027,3.176892,0,nan,0.0,0.0,0.0,0,4,1,1,1,31,0,0,0
1021350170,0,50.508480299999995,30.541772299999998,98.93900000000001,124.543,1737888218249831,10813445,0.094000004,0.013820389,0.27800003,0.423,0.48,0.74,66,14,5.051,-5.0470004,-0.18100001,0.106000006,3.1771333,0,nan,0.0,0.0,0.0,0,4,1,1,1,31,0,0,0
1021458161,0,50.508474799999995,30.541771999999998,98.97500000000001,124.58,1737888218374831,10813445,0.09,0.013400987,0.27800003,0.423,0.47,0.74,66,14,4.979,-4.9760003,-0.18300001,-0.07,3.1777358,0,nan,0.0,0.0,0.0,0,4,1,1,1,31,0,0,0
1021601161,0,50.5084692,30.541771599999997,98.96000000000001,124.56400000000001,1737888218499831,10813445,0.091000006,0.013440779,0.27800003,0.423,0.47,0.74,66,14,4.992,-4.9880004,-0.216,0.05,3.1814773,0,nan,0.0,0.0,0.0,0,4,1,1,1,31,0,0,0
1021721161,0,50.5084635,30.541771299999997,98.97,124.574,1737888218624831,10813445,0.09,0.013309705,0.27800003,0.423,0.47,0.74,66,14,5.0360003,-5.0330005,-0.178,-0.015000001,3.1790512,0,nan,0.0,0.0,0.0,0,4,1,1,1,31,0,0,0
1021831286,0,50.508457899999996,30.5417709,98.98400000000001,124.58800000000001,1737888218749831,10813445,0.091000006,0.013436591,0.277,0.423,0.47,0.74,66,14,5.0090003,-5.006,-0.18200001,-0.074,3.1785064,0,nan,0.0,0.0,0.0,0,4,1,1,1,31,0,0,0
1021945166,0,50.5084522,30.5417705,98.97200000000001,124.57600000000001,1737888218874831,10813445,0.09200001,0.013344613,0.277,0.423,0.47,0.74,66,14,5.0280004,-5.025,-0.186,0.027,3.178515,0,nan,0.0,0.0,0.0,0,4,1,1,1,31,0,0,0
1022141168,0,50.5084466,30.541770099999997,98.983,124.587,1737888218999832,10813445,0.091000006,0.0132093495,0.277,0.423,0.47,0.74,66,14,5.0480003,-5.0420003,-0.23,-0.038000003,3.1831384,0,nan,0.0,0.0,0.0,0,4,1,1,1,31,0,0,0
1022329161,0,50.5084352,30.5417693,98.97500000000001,124.57900000000001,1737888219249831,10813445,0.093,0.01306501,0.279,0.42400002,0.47,0.74,61,15,5.0740004,-5.0690002,-0.21100001,0.057000004,3.183197,0,nan,0.0,0.0,0.0,0,4,1,1,1,31,0,0,0
1022444161,0,50.5084296,30.541768899999997,98.98700000000001,124.59100000000001,1737888219374831,10813445,0.09200001,0.013460851,0.27800003,0.42400002,0.47,0.74,61,15,5.0270004,-5.0230002,-0.21700001,0.010000001,3.1840312,0,nan,0.0,0.0,0.0,0,4,1,1,1,31,0,0,0
1022576415,0,50.5084239,30.5417685,98.99000000000001,124.59400000000001,1737888219499832,10813445,0.093,0.013444794,0.27800003,0.42400002,0.47,0.74,61,15,5.046,-5.039,-0.25300002,0.031000001,3.1880593,0,nan,0.0,0.0,0.0,0,4,1,1,1,31,0,0,0
1022701161,0,50.5084184,30.541767999999998,99.014,124.61800000000001,1737888219624832,10813445,0.09200001,0.013732251,0.27800003,0.42400002,0.47,0.74,61,15,4.9440002,-4.938,-0.23400001,-0.059000004,3.1885362,0,nan,0.0,0.0,0.0,0,4,1,1,1,31,0,0,0
1022822161,0,50.5084127,30.5417676,99.008,124.61200000000001,1737888219749832,10813445,0.093,0.013353339,0.27800003,0.42400002,0.47,0.74,61,15,5.0730004,-5.0680003,-0.23500001,0.035,3.1882505,0,nan,0.0,0.0,0.0,0,4,1,1,1,31,0,0,0
1022941373,0,50.5084071,30.5417672,99.02,124.62400000000001,1737888219874832,10813445,0.09,0.013542533,0.27800003,0.42400002,0.47,0.74,61,15,5.0010004,-4.9960003,-0.23700002,-0.034,3.1886458,0,nan,0.0,0.0,0.0,0,4,1,1,1,31,0,0,0
1023144385,0,50.5084015,30.5417667,99.033,124.637,1737888219999833,10813445,0.091000006,0.013621072,0.27800003,0.423,0.47,0.74,61,15,4.999,-4.992,-0.24900001,-0.07700001,3.1901193,0,nan,0.0,0.0,0.0,0,4,1,1,1,31,0,0,0
1023326162,0,50.508390299999995,30.5417658,99.048,124.652,1737888220249832,10813445,0.091000006,0.014071717,0.279,0.425,0.47,0.74,62,16,4.977,-4.971,-0.256,-0.057000004,3.1916516,0,nan,0.0,0.0,0.0,0,4,1,1,1,31,0,0,0
1023447327,0,50.5083847,30.5417654,99.058,124.663,1737888220374832,10813445,0.089,0.013820389,0.27800003,0.42400002,0.48,0.77,62,16,4.9900002,-4.9870005,-0.16800001,-0.085,3.1829925,0,nan,0.0,0.0,0.0,0,4,1,1,1,31,0,0,0
1023575182,0,50.5083791,30.541764999999998,99.049,124.653,1737888220499832,10813445,0.089,0.013897183,0.27800003,0.42400002,0.48,0.77,62,16,4.972,-4.967,-0.23300001,-0.025,3.1858478,0,nan,0.0,0.0,0.0,0,4,1,1,1,31,0,0,0
1023704160,0,50.5083735,30.541764599999997,99.041,124.645,1737888220624832,10813445,0.087000005,0.013721778,0.27800003,0.423,0.48,0.77,62,16,4.9630003,-4.959,-0.19000001,-0.003,3.1827464,0,nan,0.0,0.0,0.0,0,4,1,1,1,31,0,0,0
1023820165,0,50.508368,30.5417642,99.052,124.657,1737888220749832,10813445,0.085,0.013598558,0.277,0.423,0.48,0.77,62,16,4.951,-4.9480004,-0.179,-0.062000003,3.1800904,0,nan,0.0,0.0,0.0,0,4,1,1,1,31,0,0,0
1023945176,0,50.508362299999995,30.5417639,99.046,124.651,1737888220874832,10813445,0.086,0.01344043,0.277,0.423,0.48,0.77,62,16,4.999,-4.9960003,-0.16800001,0.003,3.1774905,0,nan,0.0,0.0,0.0,0,4,1,1,1,31,0,0,0
1024143638,0,50.508356799999994,30.5417636,99.05,124.655,1737888220999833,10813445,0.085,0.013385628,0.27600002,0.42200002,0.48,0.77,62,16,4.966,-4.9630003,-0.165,-0.017,3.1761427,0,nan,0.0,0.0,0.0,0,4,1,1,1,31,0,0,0
1024321165,0,50.5083457,30.5417629,99.052,124.656,1737888221249832,10813445,0.087000005,0.013542009,0.277,0.423,0.48,0.77,62,14,4.9430003,-4.94,-0.17500001,-0.001,3.176575,0,nan,0.0,0.0,0.0,0,4,1,1,1,31,0,0,0
1024454161,0,50.5083401,30.5417626,99.047,124.651,1737888221374832,10813445,0.08400001,0.013147565,0.277,0.423,0.48,0.77,62,14,4.952,-4.9490004,-0.17600001,0.011000001,3.1768522,0,nan,0.0,0.0,0.0,0,4,1,1,1,31,0,0,0
1024577173,0,50.5083346,30.5417623,99.052,124.656,1737888221499832,10813445,0.086,0.013433449,0.277,0.42200002,0.47,0.74,62,14,4.927,-4.925,-0.149,-0.010000001,3.1742992,0,nan,0.0,0.0,0.0,0,4,1,1,1,31,0,0,0
1024700322,0,50.508328999999996,30.541762,99.057,124.662,1737888221624832,10813445,0.085,0.013595241,0.27600002,0.42200002,0.47,0.74,62,14,4.913,-4.9100003,-0.156,-0.046000004,3.173772,0,nan,0.0,0.0,0.0,0,4,1,1,1,31,0,0,0
1024815198,0,50.508323499999996,30.541761599999997,99.047,124.651,1737888221749832,10813445,0.08400001,0.013521414,0.27600002,0.42200002,0.47,0.72999996,62,14,4.9630003,-4.96,-0.19100001,0.010000001,3.1770806,0,nan,0.0,0.0,0.0,0,4,1,1,1,31,0,0,0
1024949161,0,50.508317899999994,30.541761299999997,99.055,124.66,1737888221874832,10813445,0.08400001,0.013425246,0.27600002,0.42100003,0.47,0.72999996,62,14,4.973,-4.972,-0.105000004,-0.035,3.1695464,0,nan,0.0,0.0,0.0,0,4,1,1,1,31,0,0,0
1025149172,0,50.5083123,30.5417609,99.056,124.661,1737888221999833,10813445,0.089,0.013784959,0.275,0.42100003,0.47,0.72999996,62,14,4.9230003,-4.919,-0.19000001,-0.007,3.1750023,0,nan,0.0,0.0,0.0,0,4,1,1,1,31,0,0,0
1025316313,0,50.5083011,30.5417603,99.069,124.674,1737888222249832,10813445,0.089,0.01366139,0.27600002,0.42200002,0.47,0.72999996,62,15,5.0020003,-4.999,-0.17,-0.036000002,3.1752956,0,nan,0.0,0.0,0.0,0,4,1,1,1,31,0,0,0
1025450172,0,50.5082956,30.5417599,99.056,124.66,1737888222374832,10813445,0.08800001,0.01357744,0.27600002,0.42200002,0.47,0.72999996,62,15,4.971,-4.967,-0.20500001,0.010000001,3.1792958,0,nan,0.0,0.0,0.0,0,4,1,1,1,31,0,0,0
1025580162,0,50.508289999999995,30.5417594,99.049,124.653,1737888222499832,10813445,0.086,0.013300107,0.27600002,0.42100003,0.47,0.72999996,62,15,4.9540005,-4.9490004,-0.22100002,0.024,3.1829624,0,nan,0.0,0.0,0.0,0,4,1,1,1,31,0,0,0
1025700164,0,50.5082844,30.541759,99.055,124.66,1737888222624832,10813445,0.085,0.013207953,0.27600002,0.42100003,0.47,0.72999996,62,15,4.992,-4.9870005,-0.23200001,-0.021000002,3.1856384,0,nan,0.0,0.0,0.0,0,4,1,1,1,31,0,0,0
1025813577,0,50.5082788,30.541758599999998,99.048,124.652,1737888222749832,10813445,0.085,0.012907059,0.275,0.42100003,0.47,0.72999996,62,15,4.9950004,-4.991,-0.20500001,0.035,3.1840608,0,nan,0.0,0.0,0.0,0,4,1,1,1,31,0,0,0
1025951176,0,50.5082732,30.541757999999998,99.059,124.664,1737888222874832,10813445,0.085,0.013049477,0.275,0.42000002,0.47,0.72999996,62,15,4.972,-4.964,-0.28,-0.048,3.1912942,0,nan,0.0,0.0,0.0,0,4,1,1,1,31,0,0,0
1026140166,0,50.508267599999996,30.541757599999997,99.063,124.668,1737888222999833,10813445,0.082,0.012927828,0.275,0.42000002,0.47,0.72999996,62,15,4.986,-4.9810004,-0.22500001,-0.027,3.188882,0,nan,0.0,0.0,0.0,0,4,1,1,1,31,0,0,0
1026315165,0,50.5082564,30.541756699999997,99.06400000000001,124.669,1737888223249832,10813445,0.085,0.013034642,0.27600002,0.42100003,0.47,0.72999996,62,15,5.012,-5.006,-0.24700001,-0.017,3.1899912,0,nan,0.0,0.0,0.0,0,4,1,1,1,31,0,0,0
1026451161,0,50.5082508,30.5417562,99.056,124.661,1737888223374832,10813445,0.085,0.013183519,0.27600002,0.42100003,0.47,0.72999996,62,15,4.973,-4.9680004,-0.23700002,-0.016,3.1895692,0,nan,0.0,0.0,0.0,0,4,1,1,1,31,0,0,0
1026579161,0,50.508245099999996,30.5417557,99.046,124.65,1737888223499832,10813445,0.087000005,0.013197482,0.275,0.42000002,0.47,0.72999996,62,15,5.0070004,-5.0010004,-0.259,0.038000003,3.1914907,0,nan,0.0,0.0,0.0,0,4,1,1,1,31,0,0,0
1026701161,0,50.508239599999996,30.5417553,99.05,124.654,1737888223624832,10813445,0.08800001,0.013369047,0.275,0.42000002,0.47,0.72999996,62,15,4.919,-4.913,-0.245,0.020000001,3.1914032,0,nan,0.0,0.0,0.0,0,4,1,1,1,31,0,0,0
1026811161,0,50.508233999999995,30.5417548,99.049,124.653,1737888223749832,10813445,0.089,0.013079322,0.275,0.41900003,0.47,0.72999996,62,15,5.044,-5.039,-0.22200002,0.033,3.1883678,0,nan,0.0,0.0,0.0,0,4,1,1,1,31,0,0,0
1026951161,0,50.5082284,30.5417544,99.044,124.648,1737888223874832,10813445,0.089,0.013224359,0.275,0.41900003,0.47,0.72999996,62,15,4.9410005,-4.934,-0.254,0.067,3.190782,0,nan,0.0,0.0,0.0,0,4,1,1,1,31,0,0,0
1027155165,0,50.5082228,30.5417541,99.051,124.655,1737888223999833,10813445,0.08800001,0.012981934,0.27400002,0.41900003,0.47,0.72999996,62,15,5.019,-5.0160003,-0.187,0.009000001,3.1844578,0,nan,0.0,0.0,0.0,0,4,1,1,1,31,0,0,0
1027316161,0,50.508211599999996,30.5417533,99.071,124.675,1737888224249832,10813445,0.09,0.01349506,0.27600002,0.42000002,0.47,0.72999996,61,19,4.9540005,-4.9490004,-0.21700001,-0.071,3.1849933,0,nan,0.0,0.0,0.0,0,4,1,1,1,31,0,0,0
1027451165,0,50.508205999999994,30.541753,99.052,124.656,1737888224374832,10813445,0.08800001,0.013087525,0.275,0.42000002,0.47,0.72999996,61,19,4.9830003,-4.98,-0.171,0.078,3.1801558,0,nan,0.0,0.0,0.0,0,4,1,1,1,31,0,0,0
1027580165,0,50.5082005,30.5417526,99.051,124.656,1737888224499832,10813445,0.086,0.013077751,0.275,0.41900003,0.47,0.72999996,61,19,4.9370003,-4.931,-0.23600002,0.031000001,3.185059,0,nan,0.0,0.0,0.0,0,4,1,1,1,31,0,0,0
1027700164,0,50.5081949,30.5417523,99.054,124.659,1737888224624832,10813445,0.08800001,0.012968145,0.275,0.41900003,0.47,0.72999996,61,19,4.9760003,-4.973,-0.17,0.0,3.180125,0,nan,0.0,0.0,0.0,0,4,1,1,1,31,0,0,0
1027821477,0,50.5081894,30.541751899999998,99.057,124.661,1737888224749832,10813445,0.086,0.013153325,0.275,0.41900003,0.47,0.72999996,61,19,4.9350004,-4.9280005,-0.256,0.026,3.187074,0,nan,0.0,0.0,0.0,0,4,1,1,1,31,0,0,0
1027951160,0,50.5081838,30.5417515,99.05,124.654,1737888224874832,10813445,0.086,0.013472894,0.275,0.41900003,0.47,0.72999996,61,19,4.966,-4.9620004,-0.19000001,0.046000004,3.1834178,0,nan,0.0,0.0,0.0,0,4,1,1,1,31,0,0,0
1028138173,0,50.508178199999996,30.5417511,99.057,124.661,1737888224999833,10813445,0.085,0.013177411,0.27400002,0.418,0.47,0.72999996,61,19,4.9890003,-4.984,-0.22100002,0.0,3.1847343,0,nan,0.0,0.0,0.0,0,4,1,1,1,31,0,0,0
1028318205,0,50.508167,30.5417502,99.05,124.655,1737888225249832,10813445,0.089,0.013532584,0.27600002,0.42000002,0.47,0.72999996,60,15,4.9950004,-4.9880004,-0.25500003,0.058000002,3.1889522,0,nan,0.0,0.0,0.0,0,4,1,1,1,31,0,0,0
1028445175,0,50.5081614,30.541749799999998,99.054,124.658,1737888225374832,10813445,0.091000006,0.014401759,0.27600002,0.42000002,0.47,0.72999996,60,15,4.9810004,-4.9750004,-0.25800002,0.045,3.191173,0,nan,0.0,0.0,0.0,0,4,1,1,1,31,0,0,0
1028576161,0,50.5081559,30.541749399999997,99.054,124.659,1737888225499832,10813445,0.094000004,0.014912268,0.27600002,0.42000002,0.47,0.72999996,60,15,4.8970003,-4.893,-0.19600001,0.061000004,3.1863296,0,nan,0.0,0.0,0.0,0,4,1,1,1,31,0,0,0
1028697165,0,50.5081503,30.541749,99.058,124.663,1737888225624832,10813445,0.094000004,0.014862002,0.27600002,0.42000002,0.47,0.72999996,60,15,4.977,-4.972,-0.224,0.021000002,3.186431,0,nan,0.0,0.0,0.0,0,4,1,1,1,31,0,0,0
1028818165,0,50.5081448,30.5417486,99.06,124.664,1737888225749832,10813445,0.098000005,0.015367449,0.27600002,0.42000002,0.47,0.72999996,60,15,4.9430003,-4.938,-0.215,0.020000001,3.1858017,0,nan,0.0,0.0,0.0,0,4,1,1,1,31,0,0,0
1028949170,0,50.508139199999995,30.541748199999997,99.052,124.657,1737888225874832,10813445,0.096,0.015443546,0.27600002,0.42100003,0.47,0.72999996,60,15,4.9560003,-4.952,-0.192,0.106000006,3.1830246,0,nan,0.0,0.0,0.0,0,4,1,1,1,31,0,0,0
1029139161,0,50.508133699999995,30.5417478,99.052,124.656,1737888225999833,10813445,0.097,0.015339,0.27600002,0.42100003,0.47,0.72999996,60,15,4.958,-4.952,-0.246,0.142,3.187249,0,nan,0.0,0.0,0.0,0,4,1,1,1,31,0,0,0
1029319165,0,50.5081225,30.5417469,99.027,124.631,1737888226249832,10813445,0.1,0.015213163,0.27800003,0.423,0.47,0.72999996,68,15,4.9820004,-4.9760003,-0.24000001,0.13000001,3.1886556,0,nan,0.0,0.0,0.0,0,4,1,1,1,31,0,0,0
1029447164,0,50.508117,30.541746399999997,99.024,124.629,1737888226374832,10813445,0.09900001,0.0151887275,0.27800003,0.423,0.47,0.74,68,15,4.973,-4.966,-0.254,0.062000003,3.190799,0,nan,0.0,0.0,0.0,0,4,1,1,1,31,0,0,0
1029575629,0,50.5081114,30.541746,99.02,124.62400000000001,1737888226499832,10813445,0.098000005,0.014913837,0.279,0.42400002,0.47,0.74,68,15,4.9900002,-4.986,-0.21400002,-0.010000001,3.187454,0,nan,0.0,0.0,0.0,0,4,1,1,1,31,0,0,0
1029693161,0,50.508105799999996,30.541745499999998,99.012,124.616,1737888226624832,10813445,0.09900001,0.0147361625,0.279,0.42400002,0.47,0.74,68,15,4.9290004,-4.9230003,-0.25,-0.010000001,3.1899984,0,nan,0.0,0.0,0.0,0,4,1,1,1,31,0,0,0
1029819161,0,50.5081002,30.541745,99.005,124.61,1737888226749832,10813445,0.096,0.014472794,0.279,0.42400002,0.47,0.74,68,15,5.0160003,-5.0080004,-0.282,0.003,3.1941545,0,nan,0.0,0.0,0.0,0,4,1,1,1,31,0,0,0
1029950200,0,50.5080947,30.5417445,99.002,124.607,1737888226874832,10813445,0.095000006,0.014495134,0.279,0.42400002,0.47,0.74,68,15,4.9280005,-4.919,-0.29700002,-0.002,3.1981256,0,nan,0.0,0.0,0.0,0,4,1,1,1,31,0,0,0
1030143167,0,50.5080891,30.5417439,99.004,124.608,1737888226999833,10813445,0.095000006,0.014264576,0.279,0.42400002,0.47,0.74,68,15,4.9960003,-4.9890003,-0.28,-0.006,3.1978445,0,nan,0.0,0.0,0.0,0,4,1,1,1,31,0,0,0
1030326161,0,50.508077799999995,30.5417429,98.992,124.59700000000001,1737888227249832,10813445,0.094000004,0.014352889,0.28,0.42600003,0.47,0.74,68,15,4.999,-4.9900002,-0.29200003,0.034,3.198977,0,nan,0.0,0.0,0.0,0,4,1,1,1,31,0,0,0
1030449161,0,50.5080722,30.541742399999997,98.997,124.602,1737888227374832,10813445,0.09200001,0.01410575,0.28,0.42600003,0.47,0.74,68,15,5.0030003,-4.9950004,-0.28,-0.002,3.1982427,0,nan,0.0,0.0,0.0,0,4,1,1,1,31,0,0,0
1030575177,0,50.5080667,30.541741799999997,99.003,124.607,1737888227499832,10813445,0.091000006,0.013783737,0.28,0.42600003,0.48999998,0.77,68,15,4.96,-4.951,-0.30400002,-0.015000001,3.2006826,0,nan,0.0,0.0,0.0,0,4,1,1,1,31,0,0,0
1030693161,0,50.508061,30.541741299999998,99.007,124.61200000000001,1737888227624832,10813445,0.09,0.013237275,0.28,0.42600003,0.48999998,0.77,68,15,5.0150003,-5.0070004,-0.286,-0.017,3.199618,0,nan,0.0,0.0,0.0,0,4,1,1,1,31,0,0,0
1030826169,0,50.508055399999996,30.5417408,99.002,124.607,1737888227749832,10813445,0.089,0.013091889,0.28,0.42600003,0.48999998,0.77,68,15,5.0140004,-5.006,-0.29000002,0.006,3.1994889,0,nan,0.0,0.0,0.0,0,4,1,1,1,31,0,0,0
1030950323,0,50.508049799999995,30.5417402,99.018,124.623,1737888227874832,10813445,0.08800001,0.013077751,0.28,0.42600003,0.48999998,0.77,68,15,4.9890003,-4.979,-0.31500003,-0.067,3.2022123,0,nan,0.0,0.0,0.0,0,4,1,1,1,31,0,0,0
1031150168,0,50.5080441,30.5417396,99.023,124.62700000000001,1737888227999833,10813445,0.08800001,0.01292905,0.28,0.42600003,0.48999998,0.77,68,15,5.083,-5.072,-0.33,-0.045,3.2045586,0,nan,0.0,0.0,0.0,0,4,1,1,1,31,0,0,0
1031330165,0,50.5080327,30.5417386,99.049,124.653,1737888228249833,10813445,0.09200001,0.013130112,0.28100002,0.42700002,0.48999998,0.77,63,14,5.064,-5.057,-0.27100003,-0.094000004,3.1994722,0,nan,0.0,0.0,0.0,0,4,1,1,1,31,0,0,0
1031451183,0,50.5080271,30.541738199999998,99.062,124.667,1737888228374833,10813445,0.08800001,0.01316048,0.28100002,0.42700002,0.48999998,0.77,63,14,5.0410004,-5.0350003,-0.25100002,-0.11000001,3.1952293,0,nan,0.0,0.0,0.0,0,4,1,1,1,31,0,0,0
1031576165,0,50.5080214,30.5417378,99.074,124.679,1737888228499833,10813445,0.089,0.01294022,0.28,0.42700002,0.48999998,0.77,63,14,5.078,-5.0740004,-0.215,-0.106000006,3.189269,0,nan,0.0,0.0,0.0,0,4,1,1,1,31,0,0,0
1031689166,0,50.508015699999994,30.5417374,99.086,124.691,1737888228624833,10813445,0.087000005,0.013072865,0.28,0.42700002,0.48999998,0.77,63,14,5.0690002,-5.0660005,-0.16800001,-0.120000005,3.1817114,0,nan,0.0,0.0,0.0,0,4,1,1,1,31,0,0,0
1031827161,0,50.50801,30.5417371,99.10300000000001,124.708,1737888228749833,10813445,0.087000005,0.013194164,0.28,0.42600003,0.48999998,0.77,63,14,5.0470004,-5.044,-0.192,-0.14500001,3.180597,0,nan,0.0,0.0,0.0,0,4,1,1,1,31,0,0,0
1031949161,0,50.5080044,30.5417368,99.116,124.721,1737888228874833,10813445,0.089,0.013416346,0.28,0.42600003,0.45999998,0.72999996,63,14,5.011,-5.0090003,-0.13700001,-0.11100001,3.1745648,0,nan,0.0,0.0,0.0,0,4,1,1,1,31,0,0,0
1032135161,0,50.507998699999995,30.5417365,99.113,124.718,1737888228999834,10813445,0.091000006,0.013277592,0.28,0.42600003,0.45999998,0.72999996,63,14,5.05,-5.0470004,-0.15200001,-0.020000001,3.1730607,0,nan,0.0,0.0,0.0,0,4,1,1,1,31,0,0,0
1032326161,0,50.5079875,30.541736099999998,99.10900000000001,124.71300000000001,1737888229249833,10813445,0.093,0.013605888,0.28100002,0.42800003,0.45999998,0.72999996,63,15,4.967,-4.965,-0.13000001,0.061000004,3.1702597,0,nan,0.0,0.0,0.0,0,4,1,1,1,31,0,0,0
1032448165,0,50.5079819,30.541735799999998,99.108,124.71300000000001,1737888229374833,10813445,0.09200001,0.013681635,0.28100002,0.42800003,0.45999998,0.72999996,63,15,4.999,-4.998,-0.11800001,0.047000002,3.1676073,0,nan,0.0,0.0,0.0,0,4,1,1,1,31,0,0,0
1032571164,0,50.5079764,30.5417356,99.09,124.69500000000001,1737888229499833,10813445,0.09200001,0.01353049,0.28100002,0.42800003,0.45999998,0.72999996,63,15,4.972,-4.971,-0.108,0.113000005,3.1652956,0,nan,0.0,0.0,0.0,0,4,1,1,1,31,0,0,0
1032685161,0,50.507970799999995,30.5417354,99.093,124.697,1737888229624833,10813445,0.091000006,0.013440256,0.28100002,0.42800003,0.45999998,0.74,63,15,4.9630003,-4.9620004,-0.125,0.026,3.1661072,0,nan,0.0,0.0,0.0,0,4,1,1,1,31,0,0,0
1032825160,0,50.507965299999995,30.541735199999998,99.063,124.667,1737888229749833,10813445,0.093,0.0137762325,0.28,0.42800003,0.45999998,0.74,63,15,4.9410005,-4.9410005,-0.08800001,0.125,3.1627243,0,nan,0.0,0.0,0.0,0,4,1,1,1,31,0,0,0
1032949161,0,50.5079597,30.541735,99.058,124.663,1737888229874833,10813445,0.094000004,0.014094407,0.28,0.42700002,0.45999998,0.74,63,15,4.999,-4.997,-0.11400001,0.066,3.1636128,0,nan,0.0,0.0,0.0,0,4,1,1,1,31,0,0,0
1033130161,0,50.5079541,30.5417347,99.038,124.643,1737888229999834,10813445,0.094000004,0.014346432,0.28,0.42700002,0.45999998,0.72999996,63,15,4.9690003,-4.966,-0.16800001,0.10700001,3.1696172,0,nan,0.0,0.0,0.0,0,4,1,1,1,31,0,0,0
1033325161,0,50.507943,30.5417341,99.012,124.617,1737888230249833,10813445,0.09900001,0.014759551,0.282,0.42900002,0.45999998,0.72999996,64,15,4.9080005,-4.905,-0.157,0.102000006,3.1717277,0,nan,0.0,0.0,0.0,0,4,1,1,1,31,0,0,0
1033448161,0,50.5079375,30.541733899999997,98.97800000000001,124.583,1737888230374833,10813445,0.1,0.01453737,0.282,0.42900002,0.45999998,0.72999996,64,15,4.939,-4.938,-0.079,0.18900001,3.1642396,0,nan,0.0,0.0,0.0,0,4,1,1,1,31,0,0,0
1033574165,0,50.507931899999996,30.541733699999998,98.991,124.596,1737888230499833,10813445,0.1,0.014444868,0.282,0.42900002,0.47,0.72999996,64,15,4.973,-4.971,-0.14600001,0.029000001,3.16775,0,nan,0.0,0.0,0.0,0,4,1,1,1,31,0,0,0
1033687166,0,50.507926399999995,30.5417335,98.974,124.57900000000001,1737888230624833,10813445,0.104,0.014449232,0.282,0.42900002,0.47,0.72999996,64,15,4.934,-4.933,-0.093,0.109000005,3.163933,0,nan,0.0,0.0,0.0,0,4,1,1,1,31,0,0,0
1033820167,0,50.5079208,30.5417332,98.965,124.57000000000001,1737888230749833,10813445,0.1,0.014437188,0.282,0.42900002,0.48999998,0.78,64,15,4.9430003,-4.94,-0.17,0.097,3.1701977,0,nan,0.0,0.0,0.0,0,4,1,1,1,31,0,0,0
1033948161,0,50.5079153,30.5417328,98.95100000000001,124.556,1737888230874833,10813445,0.101,0.014962533,0.282,0.43,0.48999998,0.78,64,15,4.938,-4.933,-0.224,0.072000004,3.1786008,0,nan,0.0,0.0,0.0,0,4,1,1,1,31,0,0,0
1034130161,0,50.5079098,30.541732399999997,98.95,124.555,1737888230999834,10813445,0.101,0.015021175,0.282,0.43,0.48999998,0.77,64,15,4.892,-4.8890004,-0.177,0.045,3.178194,0,nan,0.0,0.0,0.0,0,4,1,1,1,31,0,0,0
1034327165,0,50.5078988,30.5417317,98.93900000000001,124.544,1737888231249833,10813445,0.098000005,0.014609104,0.284,0.432,0.48999998,0.77,68,14,4.9230003,-4.918,-0.21000001,0.042000003,3.181519,0,nan,0.0,0.0,0.0,0,4,1,1,1,31,0,0,0
1034449161,0,50.5078932,30.5417313,98.931,124.536,1737888231374833,10813445,0.097,0.01438256,0.284,0.432,0.48999998,0.77,68,14,4.9570003,-4.952,-0.21800001,0.057000004,3.1836686,0,nan,0.0,0.0,0.0,0,4,1,1,1,31,0,0,0
1034574657,0,50.5078876,30.541730899999997,98.936,124.541,1737888231499833,10813445,0.096,0.014230367,0.284,0.432,0.48999998,0.77,68,14,4.9960003,-4.992,-0.208,0.013,3.1834173,0,nan,0.0,0.0,0.0,0,4,1,1,1,31,0,0,0
1034690161,0,50.507881999999995,30.5417305,98.923,124.527,1737888231624833,10813445,0.098000005,0.014501766,0.284,0.432,0.48999998,0.77,68,14,4.977,-4.9740005,-0.17300001,0.08800001,3.1797876,0,nan,0.0,0.0,0.0,0,4,1,1,1,31,0,0,0
