timestamp,timestamp_sample,baro_device_id,baro_alt_meter,baro_temp_celcius,baro_pressure_pa,rho,eas2tas,calibration_count
997451666,997451064,4028193,28.51327,13.09,100983.0,1.2288101,0.9984485,0
997538190,997505120,4028193,28.441927,13.089999,100983.836,1.2288202,0.9984444,0
997668126,997667524,4028193,28.346806,13.09,100985.0,1.2288344,0.99843866,0
997884622,997884019,4028193,28.679737,13.099999,100981.0,1.2287427,0.99847585,0
998100740,998100138,4028193,28.51327,13.099999,100983.0,1.2287672,0.99846596,0
998306412,998262517,4028193,28.381153,13.099999,100984.57,1.2287862,0.9984582,0
998425305,998424700,4028193,28.177696,13.11,100987.0,1.2287729,0.99846363,0
998641729,998641128,4028193,28.51327,13.11,100983.0,1.2287242,0.99848336,0
998857860,998857258,4028193,28.011229,13.11,100989.0,1.2287972,0.99845374,0
999074103,999073503,4028193,28.595182,13.11,100982.0,1.2287121,0.9984883,0
999290283,999289682,4028193,29.012669,13.11,100977.0,1.2286513,0.998513,0
999506429,999505827,4028193,28.595182,13.12,100982.0,1.2286692,0.9985058,0
999701156,999668108,4028193,28.679737,13.12,100981.0,1.2286569,0.9985107,0
999830890,999830284,4028193,29.263689,13.12,100974.0,1.2285718,0.99854535,0
1000046986,1000046386,4028193,28.51327,13.13,100983.0,1.2286384,0.9985182,0
1000263346,1000262745,4028193,28.930756,13.13,100978.0,1.2285775,0.998543,0
1000479484,1000478883,4028193,29.51471,13.13,100971.0,1.2284923,0.99857765,0
1000695934,1000695332,4028193,28.846203,13.139999,100979.0,1.2285469,0.9985554,0
1000901429,1000857491,4028193,29.002098,13.137143,100977.14,1.2285364,0.9985597,0
1001020478,1001019877,4028193,28.428717,13.139999,100984.0,1.2286077,0.99853075,0
1001236935,1001236335,4028193,28.428717,13.139999,100984.0,1.2286077,0.99853075,0
1001453347,1001452654,4028193,28.428717,13.139999,100984.0,1.2286077,0.99853075,0
1001669353,1001668753,4028193,28.930756,13.139999,100978.0,1.2285347,0.99856037,0
1001885646,1001885045,4028193,28.595182,13.139999,100982.0,1.2285833,0.99854064,0
1002101819,1002101218,4028193,29.263689,13.139999,100974.0,1.228486,0.9985802,0
1002296689,1002263605,4028193,29.139502,13.145,100975.5,1.2284828,0.99858147,0
1002426504,1002425903,4028193,29.681177,13.15,100969.0,1.2283822,0.99862236,0
1002642984,1002642382,4028193,29.59662,13.139999,100970.0,1.2284373,0.9986,0
1002859459,1002858858,4028193,29.847641,13.15,100967.0,1.2283579,0.99863225,0
1003075752,1003075130,4028193,30.682615,13.15,100957.0,1.2282362,0.9986817,0
1003292211,1003291610,4028193,29.847641,13.15,100967.0,1.2283579,0.99863225,0
1003497900,1003453967,4028193,30.431595,13.145715,100960.0,1.2282912,0.9986594,0
1003616738,1003616137,4028193,30.014107,13.15,100965.0,1.2283335,0.9986422,0
1003833075,1003832461,4028193,30.600702,13.15,100958.0,1.2282484,0.9986768,0
1004049544,1004048941,4028193,31.26657,13.15,100950.0,1.2281511,0.99871635,0
1004265872,1004265272,4028193,31.602142,13.15,100946.0,1.2281024,0.99873614,0
1004482308,1004481707,4028193,32.01963,13.15,100941.0,1.2280415,0.9987609,0
1004698581,1004697981,4028193,32.01963,13.15,100941.0,1.2280415,0.9987609,0
1004893141,1004860052,4028193,32.65907,13.150001,100933.336,1.2279483,0.9987988,0
1005022969,1005022367,4028193,32.939156,13.15,100930.0,1.2279078,0.9988153,0
1005239426,1005238825,4028193,32.939156,13.15,100930.0,1.2279078,0.9988153,0
1005455752,1005455136,4028193,32.854603,13.15,100931.0,1.2279199,0.99881035,0
1005671866,1005671266,4028193,33.02107,13.15,100929.0,1.2278955,0.99882025,0
1005888358,1005887757,4028193,33.272087,13.15,100926.0,1.2278591,0.9988351,0
1006104872,1006104271,4028193,33.356644,13.15,100925.0,1.227847,0.99884,0
1006212913,1006212308,4028193,34.02515,13.15,100917.0,1.2277496,0.9988796,0
1006429332,1006428732,4028193,33.356644,13.139999,100925.0,1.2278899,0.9988225,0
1006645818,1006645218,4028193,33.940594,13.139999,100918.0,1.2278047,0.9988572,0
1006862287,1006861685,4028193,35.02659,13.139999,100905.0,1.2276465,0.9989216,0
1007078820,1007078219,4028193,34.94203,13.139999,100906.0,1.2276586,0.9989166,0
1007295238,1007294637,4028193,35.02659,13.139999,100905.0,1.2276465,0.9989216,0
1007489834,1007456748,4028193,35.59733,13.139999,100898.164,1.2275634,0.99895537,0
1007706302,1007673222,4028193,36.892067,13.139999,100882.664,1.2273748,0.99903214,0
1007836243,1007835642,4028193,37.449593,13.139999,100876.0,1.2272936,0.99906516,0
1008052657,1008052057,4028193,38.95307,13.139999,100858.0,1.2270747,0.9991542,0
1008268882,1008268281,4028193,43.29969,13.139999,100806.0,1.2264421,0.99941194,0
1008485336,1008484735,4028193,40.707577,13.139999,100837.0,1.2268192,0.99925834,0
1008701625,1008701017,4028193,43.133224,13.139999,100808.0,1.2264664,0.99940205,0
1008906966,1008863122,4028193,40.612453,13.137143,100838.14,1.2268453,0.99924767,0
1009025838,1009025239,4028193,41.29417,13.13,100830.0,1.2267768,0.99927557,0
1009242246,1009241642,4028193,42.882206,13.13,100811.0,1.2265457,0.99936974,0
1009458561,1009457961,4028193,40.374645,13.13,100841.0,1.2269107,0.999221,0
1009675106,1009674444,4028193,40.374645,13.12,100841.0,1.2269536,0.99920356,0
1009891172,1009890567,4028193,40.54111,13.12,100839.0,1.2269292,0.9992135,0
1010107706,1010107099,4028193,40.958595,13.12,100834.0,1.2268684,0.99923825,0
1010302271,1010269276,4028193,40.97181,13.12,100833.836,1.2268664,0.9992391,0
1010432177,1010431573,4028193,38.702053,13.12,100861.0,1.2271968,0.99910456,0
1010648165,1010647562,4028193,39.872604,13.12,100847.0,1.2270265,0.9991739,0
1010864423,1010863821,4028193,41.209618,13.11,100831.0,1.2268747,0.9992357,0
1011080887,1011080287,4028193,40.958595,13.099999,100834.0,1.2269541,0.9992034,0
1011297042,1011296441,4028193,42.464718,13.099999,100816.0,1.226735,0.9992926,0
1011502532,1011458700,4028193,40.66001,13.099999,100837.57,1.2269975,0.9991857,0
1011621554,1011620933,4028193,40.62566,13.099999,100838.0,1.2270027,0.99918354,0
1011838019,1011837407,4028193,40.707577,13.09,100837.0,1.2270335,0.999171,0
1012054478,1012053878,4028193,40.29009,13.09,100842.0,1.2270943,0.9991463,0
1012270641,1012270040,4028193,40.958595,13.09,100834.0,1.226997,0.99918586,0
1012486922,1012486321,4028193,40.54111,13.08,100839.0,1.2271007,0.99914366,0
1012703388,1012702788,4028193,41.209618,13.08,100831.0,1.2270033,0.9991833,0
1012897927,1012864946,4028193,41.8517,13.080001,100823.336,1.2269101,0.99922127,0
1013027561,1013026959,4028193,41.209618,13.07,100831.0,1.2270461,0.9991659,0
1013244048,1013243448,4028193,40.03907,13.07,100845.0,1.2272165,0.9990966,0
1013460525,1013459923,4028193,38.95307,13.059999,100858.0,1.2274176,0.9990147,0
1013677006,1013676406,4028193,40.958595,13.059999,100834.0,1.2271256,0.9991335,0
1013893317,1013892697,4028193,41.545193,13.059999,100827.0,1.2270404,0.9991682,0
1014098981,1014055035,4028193,41.04315,13.050001,100833.0,1.2271564,0.999121,0
1014217929,1014217233,4028193,39.872604,13.049999,100847.0,1.2273266,0.9990517,0
1014433932,1014433332,4028193,40.54111,13.049999,100839.0,1.2272292,0.9990914,0
1014649923,1014649321,4028193,38.28457,13.04,100866.0,1.2276007,0.99894017,0
1014866411,1014865810,4028193,40.374645,13.04,100841.0,1.2272965,0.99906397,0
1015082573,1015081881,4028193,40.958595,13.03,100834.0,1.2272543,0.99908113,0
1015298822,1015298218,4028193,39.706135,13.03,100849.0,1.2274368,0.99900687,0
1015493482,1015460472,4028193,40.55432,13.024999,100838.836,1.2273345,0.99904853,0
1015623140,1015622540,4028193,39.788048,13.0199995,100848.0,1.2274675,0.9989944,0
1015839522,1015838921,4028193,40.874043,13.0199995,100835.0,1.2273093,0.9990588,0
1016055770,1016055166,4028193,42.546627,13.009999,100815.0,1.2271086,0.99914044,0
1016272198,1016271597,4028193,39.957153,13.009999,100846.0,1.2274859,0.9989869,0
1016488519,1016487918,4028193,42.79765,13.0,100812.0,1.2271152,0.9991378,0
1016704913,1016704297,4028193,40.874043,13.0,100835.0,1.227395,0.99902385,0
1016812999,1016812388,4028193,40.29009,12.99,100842.0,1.2275232,0.9989717,0
1017029331,1017028731,4028193,40.29009,12.99,100842.0,1.2275232,0.9989717,0
1017245820,1017245219,4028193,41.04315,12.98,100833.0,1.2274565,0.9989989,0
1017461899,1017461298,4028193,41.29417,12.98,100830.0,1.2274199,0.9990138,0
1017677869,1017677268,4028193,39.957153,12.98,100846.0,1.2276146,0.9989345,0
1017894007,1017893407,4028193,41.71166,12.969999,100825.0,1.227402,0.99902105,0
1018088883,1018055851,4028193,40.92953,12.95,100834.336,1.2276014,0.99893993,0
1018305348,1018272284,4028193,40.29009,12.95,100842.0,1.2276947,0.9989019,0
1018435191,1018434590,4028193,40.456554,12.94,100840.0,1.2277132,0.9988944,0
1018651674,1018651074,4028193,39.706135,12.929999,100849.0,1.2278658,0.99883235,0
1018868119,1018867517,4028193,39.455112,12.929999,100852.0,1.2279024,0.99881744,0
1019084212,1019083612,4028193,41.04315,12.929999,100833.0,1.227671,0.99891156,0
1019300413,1019299802,4028193,40.208176,12.92,100843.0,1.2278357,0.9988446,0
1019506027,1019462126,4028193,40.134193,12.919999,100843.86,1.2278461,0.99884033,0
1019624870,1019624268,4028193,41.79621,12.92,100824.0,1.2276043,0.99893874,0
1019841345,1019840744,4028193,37.616062,12.91,100874.0,1.228256,0.9986737,0
1020057487,1020056886,4028193,40.374645,12.9,100841.0,1.2278973,0.99881953,0
1020273969,1020273351,4028193,40.03907,12.9,100845.0,1.2279459,0.99879974,0
1020490475,1020489863,4028193,40.208176,12.9,100843.0,1.2279216,0.99880964,0
1020706947,1020706347,4028193,39.204094,12.889999,100855.0,1.2281106,0.9987328,0
1020901832,1020868746,4028193,40.903107,12.889999,100834.664,1.227863,0.99883354,0
1021031462,1021030860,4028193,41.12506,12.88,100832.0,1.2278733,0.9988293,0
1021247914,1021247314,4028193,41.29417,12.87,100830.0,1.227892,0.9988217,0
1021464207,1021463606,4028193,40.374645,12.87,100841.0,1.228026,0.9987672,0
1021680670,1021680069,4028193,40.03907,12.87,100845.0,1.2280747,0.9987474,0
1021897150,1021896548,4028193,39.455112,12.86,100852.0,1.2282029,0.99869525,0
1022102701,1022058849,4028193,40.58867,12.86,100838.43,1.2280376,0.9987625,0
1022221872,1022221270,4028193,41.545193,12.86,100827.0,1.2278985,0.99881905,0
1022438337,1022437736,4028193,42.713093,12.849999,100813.0,1.2277708,0.99887097,0
1022654826,1022654225,4028193,41.376083,12.849999,100829.0,1.2279657,0.9987917,0
1022870891,1022870290,4028193,40.123623,12.84,100844.0,1.2281914,0.99869996,0
1023086875,1023086274,4028193,41.04315,12.84,100833.0,1.2280574,0.99875444,0
1023303160,1023302558,4028193,40.54111,12.83,100839.0,1.2281734,0.99870723,0
1023497850,1023464830,4028193,40.62566,12.830001,100838.0,1.2281612,0.99871224,0
1023627704,1023627103,4028193,40.208176,12.82,100843.0,1.228265,0.99867,0
1023843981,1023843359,4028193,41.962677,12.82,100822.0,1.2280092,0.998774,0
1024060308,1024059707,4028193,40.456554,12.82,100840.0,1.2282284,0.9986849,0
1024276592,1024275983,4028193,40.958595,12.809999,100834.0,1.2281984,0.9986971,0
1024492727,1024492124,4028193,41.29417,12.809999,100830.0,1.2281497,0.9987169,0
1024698406,1024654546,4028193,41.09071,12.799998,100832.43,1.2282223,0.9986874,0
1024817265,1024816664,4028193,40.03907,12.799999,100845.0,1.2283753,0.99862516,0
1025033725,1025033124,4028193,40.208176,12.799999,100843.0,1.228351,0.99863505,0
1025250180,1025249577,4028193,42.2137,12.79,100819.0,1.2281015,0.9987365,0
1025466481,1025465880,4028193,40.958595,12.79,100834.0,1.2282842,0.9986622,0
1025682969,1025682367,4028193,43.29969,12.79,100806.0,1.2279432,0.9988009,0
1025899427,1025898827,4028193,42.882206,12.79,100811.0,1.2280041,0.9987761,0
1026094171,1026061109,4028193,41.431572,12.78,100828.336,1.2282583,0.9986728,0
1026224142,1026223542,4028193,41.6271,12.78,100826.0,1.2282299,0.9986843,0
1026440144,1026439541,4028193,40.707577,12.7699995,100837.0,1.2284068,0.99861234,0
1026656585,1026655984,4028193,41.29417,12.7699995,100830.0,1.2283214,0.9986471,0
1026872688,1026872087,4028193,41.878124,12.759999,100823.0,1.2282791,0.9986643,0
1027089008,1027088407,4028193,41.460636,12.759999,100828.0,1.22834,0.9986395,0
1027305261,1027304660,4028193,41.29417,12.75,100830.0,1.2284074,0.9986121,0
1027413516,1027412895,4028193,40.874043,12.75,100835.0,1.2284683,0.99858737,0
1027629974,1027629374,4028193,41.962677,12.74,100822.0,1.2283529,0.9986343,0
1027846294,1027845692,4028193,42.631184,12.74,100814.0,1.2282555,0.99867386,0
1028062607,1028062006,4028193,41.962677,12.74,100822.0,1.2283529,0.9986343,0
1028279093,1028278472,4028193,42.044586,12.73,100821.0,1.2283837,0.99862176,0
1028495535,1028494934,4028193,41.79621,12.73,100824.0,1.2284201,0.998607,0
1028690446,1028657341,4028193,41.97589,12.72,100821.836,1.2284368,0.9986002,0
1028906897,1028873840,4028193,41.000874,12.72,100833.5,1.2285789,0.9985424,0
1029036734,1029036132,4028193,40.707577,12.719999,100837.0,1.2286216,0.9985251,0
1029253200,1029252599,4028193,41.376083,12.71,100829.0,1.2285671,0.9985472,0
1029469509,1029468906,4028193,40.03907,12.71,100845.0,1.228762,0.998468,0
1029685963,1029685361,4028193,39.957153,12.7,100846.0,1.2288171,0.99844563,0
1029902439,1029901827,4028193,40.79213,12.7,100836.0,1.2286953,0.99849516,0
1030010675,1030010074,4028193,39.706135,12.69,100849.0,1.2288967,0.99841326,0
1030227155,1030226539,4028193,39.204094,12.69,100855.0,1.2289698,0.99838364,0
1030443623,1030443020,4028193,40.123623,12.679999,100844.0,1.2288789,0.99842054,0
1030659768,1030659167,4028193,40.62566,12.679999,100838.0,1.2288058,0.9984502,0
1030876249,1030875649,4028193,39.621582,12.67,100850.0,1.2289948,0.99837345,0
1031092714,1031092113,4028193,42.044586,12.67,100821.0,1.2286415,0.998517,0
1031287613,1031254549,4028193,43.397457,12.669999,100804.836,1.2284445,0.998597,0
1031504105,1031471026,4028193,43.80173,12.66,100800.0,1.2284286,0.9986035,0
1031633882,1031633281,4028193,44.05275,12.65,100797.0,1.228435,0.9986009,0
1031850174,1031849572,4028193,43.215134,12.65,100807.0,1.2285569,0.99855137,0
1032066454,1032065854,4028193,42.882206,12.65,100811.0,1.2286057,0.9985315,0
1032282610,1032282009,4028193,43.215134,12.639999,100807.0,1.2285999,0.9985339,0
1032498887,1032498285,4028193,45.305214,12.63,100782.0,1.2283382,0.99864024,0
1032704551,1032660626,4028193,43.43181,12.629999,100804.43,1.2286116,0.99852914,0
1032823583,1032822982,4028193,42.713093,12.63,100813.0,1.228716,0.9984867,0
1033040055,1033039455,4028193,42.464718,12.61,100816.0,1.2288386,0.9984369,0
1033256189,1033255590,4028193,43.384243,12.599999,100805.0,1.2287475,0.9984739,0
1033472659,1033472059,4028193,42.79765,12.599999,100812.0,1.2288328,0.99843925,0
1033688772,1033688171,4028193,43.048668,12.599999,100809.0,1.2287961,0.99845415,0
1033905264,1033904633,4028193,44.55479,12.59,100791.0,1.2286198,0.9985258,0
1034099964,1034066920,4028193,44.20601,12.580001,100795.164,1.2287136,0.99848765,0
1034229638,1034229022,4028193,43.048668,12.58,100809.0,1.2288823,0.99841917,0
1034446088,1034445487,4028193,43.466156,12.58,100804.0,1.2288214,0.9984439,0
1034662091,1034661490,4028193,43.632626,12.57,100802.0,1.2288399,0.9984364,0
1034878298,1034877698,4028193,42.79765,12.559999,100812.0,1.2290049,0.9983694,0
1035094589,1035093988,4028193,43.133224,12.559999,100808.0,1.2289561,0.9983892,0
1035852268,1035851666,4028193,42.631184,12.53,100814.0,1.2291583,0.99830705,0
1036068535,1036067932,4028193,42.29561,12.53,100818.0,1.229207,0.99828726,0
1036284880,1036284278,4028193,41.12506,12.53,100832.0,1.2293777,0.99821794,0
1036501342,1036500741,4028193,42.29561,12.5199995,100818.0,1.2292501,0.9982698,0
1036696243,1036663155,4028193,42.36695,12.514999,100817.164,1.2292615,0.99826515,0
1036826001,1036825399,4028193,44.134666,12.509999,100796.0,1.2290249,0.99836123,0
1037042107,1037041491,4028193,39.872604,12.5,100847.0,1.2296897,0.9980913,0
1037258474,1037257873,4028193,43.466156,12.5,100804.0,1.2291654,0.9983041,0
1037474946,1037474345,4028193,36.530067,12.49,100887.0,1.2302207,0.9978759,0
1037691404,1037690803,4028193,38.95307,12.49,100858.0,1.229867,0.9980194,0
1037907739,1037907117,4028193,38.118103,12.48,100868.0,1.2300318,0.9979525,0
1038015943,1038015324,4028193,37.280487,12.48,100878.0,1.2301539,0.997903,0
1038232405,1038231805,4028193,35.35952,12.469999,100901.0,1.2304775,0.9977718,0
1038448878,1038448278,4028193,35.444073,12.469999,100900.0,1.2304653,0.99777675,0
1038665348,1038664747,4028193,35.695095,12.46,100897.0,1.2304717,0.99777406,0
1038881654,1038881054,4028193,36.197136,12.46,100891.0,1.2303985,0.9978038,0
1039098111,1039097510,4028193,34.94203,12.45,100906.0,1.2306246,0.99771214,0
1039292900,1039259802,4028193,34.677803,12.455001,100909.164,1.2306416,0.9977052,0
1039422823,1039422223,4028193,35.52863,12.45,100899.0,1.2305391,0.99774677,0
1039638969,1039638367,4028193,35.1085,12.44,100904.0,1.2306433,0.99770457,0
1039855456,1039854856,4028193,34.524548,12.429999,100911.0,1.2307718,0.9976525,0
1040071922,1040071321,4028193,35.52863,12.429999,100899.0,1.2306254,0.99771184,0
1040288403,1040287802,4028193,35.946114,12.42,100894.0,1.2306075,0.99771905,0
1040504910,1040504290,4028193,35.695095,12.41,100897.0,1.2306871,0.9976868,0
1040613102,1040612501,4028193,36.44551,12.41,100888.0,1.2305775,0.9977312,0
1040829608,1040829007,4028193,37.951633,12.4,100870.0,1.2304009,0.99780285,0
1041046090,1041045489,4028193,40.208176,12.4,100843.0,1.2300717,0.99793637,0
1041262314,1041261713,4028193,41.79621,12.389999,100824.0,1.229883,0.9980129,0
1041478466,1041477863,4028193,41.209618,12.38,100831.0,1.2300113,0.9979608,0
1041694935,1041694334,4028193,40.79213,12.38,100836.0,1.2300724,0.99793607,0
1041889760,1041856697,4028193,40.498833,12.37,100839.5,1.2301581,0.9979013,0
1042106117,1042072992,4028193,40.958595,12.37,100834.0,1.2300911,0.9979285,0
1042235940,1042235340,4028193,42.2137,12.36,100819.0,1.2299513,0.9979852,0
1042452469,1042451847,4028193,40.874043,12.349999,100835.0,1.2301894,0.99788857,0
1042668673,1042668072,4028193,41.878124,12.349999,100823.0,1.230043,0.99794793,0
1042885154,1042884551,4028193,42.29561,12.34,100818.0,1.230025,0.99795526,0
1043101622,1043101022,4028193,42.882206,12.34,100811.0,1.2299398,0.99798983,0
1043307004,1043263103,4028193,46.200954,12.330001,100771.29,1.2294984,0.99816895,0
1043425886,1043425285,4028193,44.470238,12.33,100792.0,1.229751,0.9980665,0
1043642312,1043641710,4028193,44.55479,12.32,100791.0,1.2297819,0.9980539,0
1043858465,1043857865,4028193,44.219215,12.309999,100795.0,1.2298738,0.99801666,0
1044074883,1044074282,4028193,44.636707,12.309999,100790.0,1.2298127,0.9980414,0
1044291172,1044290568,4028193,45.305214,12.3,100782.0,1.2297583,0.9980635,0
1044507655,1044507055,4028193,44.470238,12.28,100792.0,1.2299664,0.99797904,0
1044702523,1044669412,4028193,44.40154,12.275001,100792.836,1.2299981,0.9979662,0
1044832169,1044831564,4028193,43.215134,12.2699995,100807.0,1.2301927,0.99788725,0
1045048294,1045047693,4028193,45.97636,12.259999,100774.0,1.2298329,0.9980332,0
1045264818,1045264217,4028193,43.80173,12.259999,100800.0,1.2301502,0.9979045,0
1045481056,1045480455,4028193,45.807255,12.25,100776.0,1.2299005,0.9980058,0
1045697240,1045696639,4028193,43.55071,12.24,100803.0,1.230273,0.99785465,0
1045902731,1045858932,4028193,43.836082,12.237142,100799.57,1.2302434,0.9978667,0
1046021700,1046021083,4028193,43.29969,12.23,100806.0,1.2303528,0.99782234,0
1046237910,1046237309,4028193,41.29417,12.23,100830.0,1.2306457,0.9977036,0
1046454118,1046453506,4028193,39.706135,12.219999,100849.0,1.2309208,0.9975921,0
1046670609,1046670007,4028193,36.614624,12.21,100886.0,1.2314155,0.99739164,0
1046887049,1046886448,4028193,34.35808,12.21,100913.0,1.231745,0.99725825,0
1047103367,1047102743,4028193,33.774128,12.2,100920.0,1.2318736,0.9972062,0
1047298091,1047265046,4028193,33.953808,12.195,100917.836,1.2318687,0.9972082,0
1047427979,1047427282,4028193,34.02515,12.19,100917.0,1.2318802,0.9972035,0
1047644194,1047643593,4028193,33.02107,12.179999,100929.0,1.2320698,0.99712676,0
1047860484,1047859884,4028193,34.10706,12.17,100916.0,1.2319543,0.99717355,0
1048076739,1048076137,4028193,33.60502,12.16,100922.0,1.2320707,0.99712646,0
1048292884,1048292283,4028193,32.854603,12.15,100931.0,1.2322239,0.9970645,0
1048498553,1048454648,4028193,33.36721,12.150001,100924.86,1.2321489,0.9970948,0
1048617525,1048616924,4028193,33.689575,12.139999,100921.0,1.232145,0.9970964,0
1048833872,1048833271,4028193,33.689575,12.13,100921.0,1.2321881,0.99707896,0
1049049994,1049049392,4028193,33.774128,12.13,100920.0,1.232176,0.99708384,0
1049266283,1049265683,4028193,32.939156,12.12,100930.0,1.2323413,0.99701697,0
1049482737,1049482136,4028193,33.940594,12.11,100918.0,1.2322379,0.99705875,0
1049699205,1049698605,4028193,33.689575,12.11,100921.0,1.2322745,0.99704397,0
1049893743,1049860717,4028193,33.467617,12.099999,100923.664,1.2323502,0.99701333,0
1050023416,1050022815,4028193,34.6091,12.099999,100910.0,1.2321835,0.99708086,0
1050239867,1050239266,4028193,33.689575,12.09,100921.0,1.232361,0.997009,0
1050456347,1050455741,4028193,33.52311,12.08,100923.0,1.2324287,0.9969816,0
1050672923,1050672277,4028193,33.438553,12.07,100924.0,1.232484,0.9969592,0
1050889291,1050888686,4028193,33.940594,12.07,100918.0,1.2324107,0.9969889,0
1051105751,1051105143,4028193,33.60502,12.059999,100922.0,1.2325027,0.9969517,0
1051213819,1051213218,4028193,33.52311,12.05,100923.0,1.2325583,0.9969292,0
1051430318,1051429717,4028193,33.60502,12.05,100922.0,1.232546,0.9969342,0
1051646743,1051646142,4028193,34.273525,12.04,100914.0,1.2324914,0.9969562,0
1051863223,1051862607,4028193,33.940594,12.04,100918.0,1.2325404,0.99693644,0
1052079705,1052079099,4028193,33.940594,12.03,100918.0,1.2325836,0.9969189,0
1052296167,1052295562,4028193,34.02515,12.03,100917.0,1.2325714,0.9969239,0
1052490924,1052457886,4028193,33.927383,12.025001,100918.164,1.2326072,0.9969094,0
1052620698,1052620097,4028193,33.356644,12.0199995,100925.0,1.2327124,0.9968669,0
1052836883,1052836282,4028193,34.693657,12.009999,100909.0,1.23256,0.99692845,0
1053053286,1053052686,4028193,33.85604,12.009999,100919.0,1.2326822,0.9968791,0
1053269708,1053269107,4028193,33.940594,12.009999,100918.0,1.23267,0.99688405,0
1053486046,1053485445,4028193,34.10706,12.0,100916.0,1.2326889,0.99687636,0
1053702535,1053701935,4028193,33.85604,12.0,100919.0,1.2327255,0.9968616,0
1053810744,1053810144,4028193,33.52311,11.99,100923.0,1.2328176,0.9968243,0
1054026886,1054026284,4028193,33.356644,11.98,100925.0,1.2328852,0.99679697,0
1054243346,1054242745,4028193,33.940594,11.99,100918.0,1.2327565,0.99684906,0
1054459636,1054459023,4028193,33.60502,11.969999,100922.0,1.2328918,0.99679434,0
1054676091,1054675491,4028193,33.356644,11.96,100925.0,1.2329718,0.99676204,0
1054892319,1054891719,4028193,33.272087,11.96,100926.0,1.232984,0.9967571,0
1055086942,1055053928,4028193,33.340786,11.96,100925.164,1.2329738,0.9967612,0
1055303412,1055270303,4028193,33.438553,11.95,100924.0,1.2330027,0.9967495,0
1055433190,1055432590,4028193,33.187534,11.95,100927.0,1.2330394,0.9967347,0
1055649690,1055649090,4028193,32.770046,11.94,100932.0,1.2331437,0.99669254,0
1055865661,1055865060,4028193,33.52311,11.94,100923.0,1.2330338,0.99673694,0
1056082111,1056081508,4028193,33.52311,11.94,100923.0,1.2330338,0.99673694,0
1056298621,1056298020,4028193,33.52311,11.929999,100923.0,1.233077,0.9967195,0
1056504262,1056460353,4028193,33.356644,11.929999,100925.0,1.2331015,0.9967096,0
1056623329,1056622728,4028193,33.10562,11.929999,100928.0,1.2331381,0.9966948,0
1056839752,1056839152,4028193,33.187534,11.92,100927.0,1.2331691,0.9966823,0
1057056032,1057055428,4028193,33.438553,11.92,100924.0,1.2331325,0.99669707,0
1057272200,1057271595,4028193,32.770046,11.91,100932.0,1.2332735,0.9966401,0
1057488470,1057487869,4028193,33.774128,11.91,100920.0,1.2331269,0.99669933,0
1057704736,1057704135,4028193,33.10562,11.91,100928.0,1.2332246,0.9966598,0
1057899466,1057866456,4028193,33.314365,11.904999,100925.5,1.2332157,0.99666345,0
1058029451,1058028847,4028193,33.272087,11.9,100926.0,1.2332435,0.9966522,0
1058245676,1058245028,4028193,33.02107,11.889999,100929.0,1.2333235,0.9966199,0
1058462031,1058461431,4028193,33.356644,11.889999,100925.0,1.2332746,0.99663967,0
1058678323,1058677722,4028193,33.02107,11.889999,100929.0,1.2333235,0.9966199,0
1058894817,1058894217,4028193,33.438553,11.889999,100924.0,1.2332624,0.99664456,0
1059100477,1059056538,4028193,33.356644,11.885714,100925.0,1.233293,0.99663216,0
1059219514,1059218902,4028193,33.02107,11.88,100929.0,1.2333666,0.9966025,0
1059435965,1059435359,4028193,32.60358,11.88,100934.0,1.2334278,0.99657774,0
1059652107,1059651506,4028193,32.939156,11.87,100930.0,1.2334223,0.99657995,0
1059868387,1059867777,4028193,33.52311,11.88,100923.0,1.2332934,0.99663204,0
1060084500,1060083898,4028193,33.438553,11.87,100924.0,1.2333488,0.9966096,0
1060300593,1060299992,4028193,33.272087,11.87,100926.0,1.2333733,0.9965998,0
1060495350,1060462315,4028193,33.451767,11.87,100923.836,1.2333468,0.99661046,0
1060625095,1060624489,4028193,33.689575,11.86,100921.0,1.2333555,0.99660695,0
1060841451,1060840847,4028193,32.770046,11.86,100932.0,1.23349,0.9965526,0
1061057912,1061057311,4028193,34.273525,11.86,100914.0,1.2332699,0.9966415,0
1061274181,1061273577,4028193,33.438553,11.849999,100924.0,1.2334354,0.9965747,0
1061490456,1061489855,4028193,33.272087,11.849999,100926.0,1.2334598,0.9965648,0
1061706673,1061706072,4028193,33.10562,11.849999,100928.0,1.2334841,0.996555,0
1061814873,1061814271,4028193,33.689575,11.849999,100921.0,1.2333987,0.9965895,0
1062031315,1062030687,4028193,33.10562,11.849999,100928.0,1.2334841,0.996555,0
1062247588,1062246986,4028193,33.940594,11.84,100918.0,1.2334054,0.9965868,0
1062463885,1062463284,4028193,32.688133,11.84,100933.0,1.2335887,0.9965127,0
1062680231,1062679600,4028193,32.770046,11.84,100932.0,1.2335764,0.9965177,0
1062896463,1062895863,4028193,33.438553,11.84,100924.0,1.2334787,0.9965572,0
1063091353,1063058220,4028193,33.09241,11.830001,100928.164,1.2335728,0.99651915,0
1063307821,1063274691,4028193,32.96558,11.830001,100929.664,1.2335912,0.9965117,0
1063437660,1063437060,4028193,32.60358,11.83,100934.0,1.2336442,0.9964903,0
1063654130,1063653529,4028193,33.356644,11.83,100925.0,1.2335342,0.99653476,0
1063870612,1063870011,4028193,34.273525,11.82,100914.0,1.2334429,0.9965716,0
1064087070,1064086449,4028193,33.187534,11.82,100927.0,1.2336018,0.99650747,0
1064303565,1064302964,4028193,33.272087,11.82,100926.0,1.2335896,0.99651235,0
1064411778,1064411158,4028193,32.688133,11.83,100933.0,1.233632,0.99649525,0
1064628229,1064627624,4028193,33.356644,11.82,100925.0,1.2335775,0.9965173,0
1064844718,1064844117,4028193,33.187534,11.82,100927.0,1.2336018,0.99650747,0
1065061005,1065060404,4028193,33.52311,11.82,100923.0,1.233553,0.99652714,0
1065277135,1065276533,4028193,32.437115,11.809999,100936.0,1.2337551,0.99644554,0
1065493610,1065493009,4028193,33.02107,11.809999,100929.0,1.2336696,0.99648005,0
1065688468,1065655393,4028193,33.412132,11.8099985,100924.336,1.2336127,0.99650306,0
1065904954,1065871876,4028193,33.327576,11.8,100925.336,1.2336682,0.99648064,0
1066034618,1066034017,4028193,33.438553,11.809999,100924.0,1.2336086,0.9965047,0
1066251060,1066250446,4028193,34.10706,11.8,100916.0,1.2335541,0.9965267,0
1066467528,1066466907,4028193,33.272087,11.8,100926.0,1.2336763,0.99647737,0
1066684015,1066683382,4028193,33.774128,11.8,100920.0,1.233603,0.996507,0
1066900110,1066899497,4028193,32.854603,11.79,100931.0,1.2337806,0.9964352,0
1067105536,1067061649,4028193,32.746265,11.800001,100932.29,1.2337532,0.9964463,0
1067224438,1067223837,4028193,32.939156,11.79,100930.0,1.2337685,0.9964402,0
1067440907,1067440305,4028193,33.02107,11.79,100929.0,1.2337562,0.99644506,0
1067657090,1067656460,4028193,33.187534,11.79,100927.0,1.2337317,0.99645495,0
1067873343,1067872721,4028193,33.438553,11.79,100924.0,1.2336951,0.99646974,0
1068089818,1068089217,4028193,33.85604,11.78,100919.0,1.2336773,0.99647695,0
1068306260,1068305653,4028193,32.437115,11.78,100936.0,1.233885,0.9963931,0
1068500893,1068467876,4028193,33.16111,11.78,100927.336,1.2337792,0.9964358,0
1068630646,1068630045,4028193,33.187534,11.78,100927.0,1.233775,0.9964375,0
1068847101,1068846498,4028193,33.10562,11.78,100928.0,1.2337873,0.99643254,0
1069063567,1069062966,4028193,34.02515,11.78,100917.0,1.2336528,0.99648684,0
1069280031,1069279430,4028193,33.52311,11.78,100923.0,1.2337263,0.99645716,0
1069496309,1069495705,4028193,32.437115,11.78,100936.0,1.233885,0.9963931,0
1069702001,1069658079,4028193,32.830822,11.777143,100931.29,1.23384,0.99641126,0
1069820993,1069820393,4028193,32.521667,11.78,100935.0,1.2338729,0.996398,0
1070037299,1070036698,4028193,33.356644,11.7699995,100925.0,1.233794,0.99642986,0
1070253798,1070253178,4028193,32.521667,11.7699995,100935.0,1.2339162,0.9963805,0
1070470261,1070469661,4028193,32.521667,11.7699995,100935.0,1.2339162,0.9963805,0
1070686414,1070685813,4028193,33.02107,11.7699995,100929.0,1.2338428,0.9964101,0
1070902857,1070902255,4028193,33.272087,11.759999,100926.0,1.2338494,0.99640745,0
1071097747,1071064657,4028193,32.854603,11.764999,100931.0,1.233889,0.9963915,0
1071227351,1071226750,4028193,33.272087,11.759999,100926.0,1.2338494,0.99640745,0
1071443799,1071443123,4028193,32.688133,11.7699995,100933.0,1.2338917,0.9963904,0
1071659988,1071659387,4028193,33.689575,11.759999,100921.0,1.2337883,0.9964322,0
1071876459,1071875830,4028193,32.60358,11.759999,100934.0,1.2339472,0.996368,0
1072092721,1072092120,4028193,33.187534,11.759999,100927.0,1.2338617,0.9964025,0
1072298224,1072254410,4028193,32.78326,11.76,100931.86,1.233921,0.99637854,0
1072417235,1072416633,4028193,32.352562,11.7699995,100937.0,1.2339406,0.9963707,0
1072633580,1072632979,4028193,32.939156,11.759999,100930.0,1.2338984,0.99638766,0
1072850174,1072849563,4028193,32.770046,11.759999,100932.0,1.2339228,0.9963778,0
1073066637,1073066035,4028193,32.854603,11.759999,100931.0,1.2339106,0.9963828,0
1073283101,1073282500,4028193,33.438553,11.759999,100924.0,1.233825,0.99641734,0
1073499576,1073498974,4028193,32.688133,11.759999,100933.0,1.233935,0.9963729,0
1073694115,1073661069,4028193,32.96558,11.759999,100929.664,1.2338942,0.9963894,0
1073823961,1073823359,4028193,34.02515,11.75,100917.0,1.2337828,0.9964344,0
1074040217,1074039615,4028193,33.60502,11.759999,100922.0,1.2338004,0.99642724,0
1074256705,1074256084,4028193,32.770046,11.75,100932.0,1.2339661,0.99636036,0
1074472945,1074472331,4028193,33.60502,11.75,100922.0,1.2338438,0.9964097,0
1074689284,1074688681,4028193,33.438553,11.75,100924.0,1.2338684,0.9963998,0
1074905751,1074905151,4028193,32.939156,11.75,100930.0,1.2339417,0.9963702,0
1075013858,1075013249,4028193,32.854603,11.75,100931.0,1.233954,0.99636525,0
1075230110,1075229510,4028193,33.10562,11.75,100928.0,1.2339172,0.9963801,0
1075446557,1075445954,4028193,32.521667,11.75,100935.0,1.2340028,0.9963455,0
1075663029,1075662428,4028193,32.688133,11.75,100933.0,1.2339784,0.9963554,0
1075879332,1075878731,4028193,32.854603,11.75,100931.0,1.233954,0.99636525,0
1076095467,1076094867,4028193,32.521667,11.75,100935.0,1.2340028,0.9963455,0
1076290194,1076257156,4028193,32.79911,11.75,100931.664,1.2339619,0.99636203,0
1076506460,1076473395,4028193,32.854603,11.75,100931.0,1.233954,0.99636525,0
1076636263,1076635661,4028193,33.272087,11.75,100926.0,1.2338928,0.9963899,0
1076852726,1076852123,4028193,32.770046,11.75,100932.0,1.2339661,0.99636036,0
1077069020,1077068420,4028193,33.60502,11.75,100922.0,1.2338438,0.9964097,0
1077285302,1077284700,4028193,32.854603,11.75,100931.0,1.233954,0.99636525,0
1077501783,1077501158,4028193,33.272087,11.74,100926.0,1.2339361,0.99637246,0
1077707277,1077663457,4028193,32.830822,11.744286,100931.29,1.2339822,0.9963538,0
1077826113,1077825512,4028193,32.352562,11.75,100937.0,1.2340271,0.9963357,0
1078042407,1078041794,4028193,32.854603,11.74,100931.0,1.2339972,0.9963478,0
1078258885,1078258284,4028193,32.854603,11.74,100931.0,1.2339972,0.9963478,0
1078475041,1078474441,4028193,33.02107,11.74,100929.0,1.2339728,0.9963576,0
1078691502,1078690901,4028193,32.939156,11.74,100930.0,1.2339851,0.9963527,0
1078886364,1078853311,4028193,32.78326,11.739999,100931.836,1.2340075,0.9963436,0
1079102835,1079069792,4028193,32.727768,11.739999,100932.5,1.2340156,0.9963404,0
1079232636,1079232035,4028193,33.02107,11.74,100929.0,1.2339728,0.9963576,0
1079448934,1079448333,4028193,33.02107,11.74,100929.0,1.2339728,0.9963576,0
1079665222,1079664620,4028193,33.272087,11.74,100926.0,1.2339361,0.99637246,0
1079881344,1079880743,4028193,32.770046,11.74,100932.0,1.2340095,0.99634284,0
1080097819,1080097217,4028193,33.438553,11.74,100924.0,1.2339118,0.9963823,0
1080303428,1080259549,4028193,33.176964,11.737142,100927.14,1.2339623,0.99636185,0
1080422327,1080421726,4028193,33.187534,11.74,100927.0,1.2339483,0.9963675,0
1080638820,1080638219,4028193,33.10562,11.74,100928.0,1.2339605,0.9963626,0
1080855254,1080854653,4028193,32.437115,11.73,100936.0,1.2341015,0.9963057,0
1081071683,1081071014,4028193,33.10562,11.74,100928.0,1.2339605,0.9963626,0
1081287706,1081287105,4028193,32.770046,11.73,100932.0,1.2340528,0.9963254,0
1081504129,1081503528,4028193,32.60358,11.73,100934.0,1.2340771,0.99631554,0
1081698686,1081665626,4028193,32.437115,11.739999,100936.0,1.2340584,0.9963231,0
1081828690,1081828062,4028193,32.60358,11.73,100934.0,1.2340771,0.99631554,0
1082044836,1082044234,4028193,33.52311,11.74,100923.0,1.2338995,0.99638724,0
1082261275,1082260653,4028193,32.688133,11.73,100933.0,1.2340649,0.9963204,0
1082477712,1082477106,4028193,33.438553,11.73,100924.0,1.2339549,0.9963649,0
1082693995,1082693394,4028193,33.272087,11.73,100926.0,1.2339793,0.996355,0
1082899670,1082855726,4028193,32.915375,11.732857,100930.29,1.2340195,0.9963388,0
1083018693,1083018092,4028193,33.02107,11.73,100929.0,1.234016,0.9963402,0
1083234656,1083234055,4028193,32.60358,11.74,100934.0,1.234034,0.99633294,0
1083451111,1083450510,4028193,32.854603,11.73,100931.0,1.2340405,0.9963303,0
1083667607,1083667007,4028193,33.356644,11.73,100925.0,1.2339672,0.9963599,0
1083884043,1083883443,4028193,33.272087,11.73,100926.0,1.2339793,0.996355,0
1084100339,1084099738,4028193,32.688133,11.73,100933.0,1.2340649,0.9963204,0
1084295063,1084262003,4028193,32.84139,11.73,100931.164,1.2340424,0.99632955,0
1084425032,1084424432,4028193,33.02107,11.73,100929.0,1.234016,0.9963402,0
1084641497,1084640897,4028193,32.939156,11.74,100930.0,1.2339851,0.9963527,0
1084857977,1084857370,4028193,33.187534,11.73,100927.0,1.2339915,0.9963501,0
1085074439,1085073838,4028193,33.02107,11.73,100929.0,1.234016,0.9963402,0
1085290912,1085290310,4028193,32.60358,11.73,100934.0,1.2340771,0.99631554,0
1085507406,1085506803,4028193,33.272087,11.73,100926.0,1.2339793,0.996355,0
1085615628,1085615027,4028193,32.688133,11.73,100933.0,1.2340649,0.9963204,0
1085831937,1085831325,4028193,33.187534,11.73,100927.0,1.2339915,0.9963501,0
1086048212,1086047611,4028193,33.272087,11.73,100926.0,1.2339793,0.996355,0
1086264482,1086263881,4028193,32.770046,11.73,100932.0,1.2340528,0.9963254,0
1086480979,1086480364,4028193,33.10562,11.73,100928.0,1.2340038,0.9963451,0
1086697427,1086696825,4028193,33.187534,11.73,100927.0,1.2339915,0.9963501,0
1086892238,1086859171,4028193,32.743626,11.73,100932.336,1.2340568,0.9963237,0
1087022131,1087021530,4028193,33.187534,11.73,100927.0,1.2339915,0.9963501,0
1087238611,1087238009,4028193,33.438553,11.73,100924.0,1.2339549,0.9963649,0
1087455074,1087454473,4028193,32.437115,11.73,100936.0,1.2341015,0.9963057,0
1087671265,1087670663,4028193,33.187534,11.73,100927.0,1.2339915,0.9963501,0
1087887679,1087887076,4028193,32.770046,11.73,100932.0,1.2340528,0.9963254,0
1088104144,1088103543,4028193,32.104183,11.73,100940.0,1.2341505,0.9962859,0
1088212240,1088211638,4028193,32.854603,11.73,100931.0,1.2340405,0.9963303,0
1088428495,1088427894,4028193,32.521667,11.73,100935.0,1.2340894,0.9963106,0
1088644868,1088644267,4028193,33.356644,11.73,100925.0,1.2339672,0.9963599,0
1088861066,1088860465,4028193,32.521667,11.73,100935.0,1.2340894,0.9963106,0
1089077548,1089076947,4028193,33.60502,11.73,100922.0,1.2339303,0.9963748,0
1089293998,1089293397,4028193,33.02107,11.74,100929.0,1.2339728,0.9963576,0
1089488560,1089455537,4028193,32.688133,11.73,100933.0,1.2340649,0.9963204,0
1089705023,1089671985,4028193,32.701347,11.73,100932.836,1.2340629,0.99632126,0
1089835021,1089834405,4028193,33.52311,11.73,100923.0,1.2339427,0.9963698,0
1090051127,1090050527,4028193,32.521667,11.73,100935.0,1.2340894,0.9963106,0
1090267611,1090267010,4028193,32.854603,11.73,100931.0,1.2340405,0.9963303,0
1090484052,1090483449,4028193,32.939156,11.73,100930.0,1.2340283,0.9963352,0
1090700538,1090699935,4028193,32.437115,11.73,100936.0,1.2341015,0.9963057,0
1090906199,1090862338,4028193,32.915375,11.7300005,100930.29,1.2340318,0.99633384,0
1091025288,1091024670,4028193,32.770046,11.73,100932.0,1.2340528,0.9963254,0
1091241730,1091241129,4028193,33.02107,11.73,100929.0,1.234016,0.9963402,0
1091458193,1091457593,4028193,32.688133,11.73,100933.0,1.2340649,0.9963204,0
1091674457,1091673857,4028193,32.60358,11.73,100934.0,1.2340771,0.99631554,0
1091890720,1091890119,4028193,32.770046,11.73,100932.0,1.2340528,0.9963254,0
1092107190,1092106589,4028193,33.52311,11.73,100923.0,1.2339427,0.9963698,0
1092301908,1092268866,4028193,32.479393,11.73,100935.5,1.2340955,0.99630815,0
1092431552,1092430951,4028193,32.352562,11.73,100937.0,1.2341138,0.9963007,0
1092648041,1092647440,4028193,32.521667,11.73,100935.0,1.2340894,0.9963106,0
1092864510,1092863909,4028193,33.187534,11.73,100927.0,1.2339915,0.9963501,0
1093080974,1093080373,4028193,32.27065,11.73,100938.0,1.2341261,0.99629575,0
1093297258,1093296656,4028193,33.02107,11.73,100929.0,1.234016,0.9963402,0
1093502663,1093458838,4028193,32.64057,11.7300005,100933.57,1.2340719,0.9963176,0
1093621611,1093621008,4028193,32.60358,11.73,100934.0,1.2340771,0.99631554,0
1093838093,1093837490,4028193,32.186092,11.73,100939.0,1.2341384,0.9962908,0
1094054550,1094053947,4028193,33.438553,11.73,100924.0,1.2339549,0.9963649,0
1094271076,1094270476,4028193,32.186092,11.73,100939.0,1.2341384,0.9962908,0
1094487493,1094486892,4028193,32.104183,11.73,100940.0,1.2341505,0.9962859,0
1094703822,1094703221,4028193,32.60358,11.73,100934.0,1.2340771,0.99631554,0
1094898664,1094865537,4028193,32.64586,11.73,100933.5,1.234071,0.996318,0
1095028467,1095027867,4028193,32.104183,11.73,100940.0,1.2341505,0.9962859,0
1095244835,1095244230,4028193,32.186092,11.73,100939.0,1.2341384,0.9962908,0
1095461208,1095460608,4028193,32.854603,11.73,100931.0,1.2340405,0.9963303,0
1095677421,1095676808,4028193,32.854603,11.73,100931.0,1.2340405,0.9963303,0
1095893843,1095893222,4028193,32.770046,11.73,100932.0,1.2340528,0.9963254,0
1096099496,1096055599,4028193,32.54545,11.7300005,100934.71,1.2340858,0.996312,0
1096218465,1096217864,4028193,32.60358,11.73,100934.0,1.2340771,0.99631554,0
1096434822,1096434220,4028193,32.854603,11.73,100931.0,1.2340405,0.9963303,0
1096651294,1096650679,4028193,31.76861,11.73,100944.0,1.2341994,0.9962662,0
1096867742,1096867141,4028193,32.104183,11.73,100940.0,1.2341505,0.9962859,0
1097084233,1097083634,4028193,32.104183,11.73,100940.0,1.2341505,0.9962859,0
1097300664,1097300063,4028193,32.770046,11.73,100932.0,1.2340528,0.9963254,0
1097495405,1097462372,4028193,32.574512,11.73,100934.336,1.2340813,0.99631387,0
1097625399,1097624776,4028193,32.770046,11.73,100932.0,1.2340528,0.9963254,0
1097841873,1097841272,4028193,32.521667,11.73,100935.0,1.2340894,0.9963106,0
1098058337,1098057736,4028193,32.60358,11.73,100934.0,1.2340771,0.99631554,0
1098274513,1098273894,4028193,32.352562,11.73,100937.0,1.2341138,0.9963007,0
1098490957,1098490356,4028193,32.854603,11.73,100931.0,1.2340405,0.9963303,0
1098707268,1098706647,4028193,32.939156,11.73,100930.0,1.2340283,0.9963352,0
1098815414,1098814814,4028193,32.854603,11.73,100931.0,1.2340405,0.9963303,0
1099031494,1099030893,4028193,32.27065,11.73,100938.0,1.2341261,0.99629575,0
1099247671,1099247070,4028193,32.27065,11.73,100938.0,1.2341261,0.99629575,0
1099464109,1099463508,4028193,32.770046,11.719999,100932.0,1.234096,0.9963079,0
1099680260,1099679659,4028193,32.27065,11.73,100938.0,1.2341261,0.99629575,0
1099896533,1099895912,4028193,32.01963,11.73,100941.0,1.2341627,0.99628097,0
1100091254,1100058247,4028193,32.505814,11.73,100935.164,1.2340914,0.99630976,0
1100221029,1100220427,4028193,32.437115,11.73,100936.0,1.2341015,0.9963057,0
1100437155,1100436554,4028193,32.521667,11.73,100935.0,1.2340894,0.9963106,0
1100653642,1100653039,4028193,33.10562,11.73,100928.0,1.2340038,0.9963451,0
1100870100,1100869499,4028193,32.352562,11.719999,100937.0,1.2341572,0.99628323,0
1101086405,1101085805,4028193,33.272087,11.73,100926.0,1.2339793,0.996355,0
1101302867,1101302267,4028193,32.939156,11.73,100930.0,1.2340283,0.9963352,0
1101410887,1101410284,4028193,32.521667,11.73,100935.0,1.2340894,0.9963106,0
1101627246,1101626645,4028193,32.186092,11.73,100939.0,1.2341384,0.9962908,0
1101843678,1101843077,4028193,33.10562,11.73,100928.0,1.2340038,0.9963451,0
1102060019,1102059415,4028193,32.939156,11.73,100930.0,1.2340283,0.9963352,0
1102276426,1102275825,4028193,32.104183,11.73,100940.0,1.2341505,0.9962859,0
1102492694,1102492093,4028193,32.521667,11.73,100935.0,1.2340894,0.9963106,0
1102687456,1102654394,4028193,32.60358,11.73,100934.0,1.2340771,0.99631554,0
1102903888,1102870876,4028193,32.756836,11.724999,100932.164,1.2340764,0.99631584,0
1103033565,1103032964,4028193,32.688133,11.719999,100933.0,1.2341083,0.9963029,0
1103249992,1103249390,4028193,33.689575,11.73,100921.0,1.2339182,0.9963797,0
1103466462,1103465861,4028193,33.52311,11.73,100923.0,1.2339427,0.9963698,0
1103682749,1103682147,4028193,32.521667,11.719999,100935.0,1.2341328,0.99629307,0
1103899158,1103898464,4028193,32.104183,11.73,100940.0,1.2341505,0.9962859,0
1104104547,1104060686,4028193,32.60358,11.727142,100934.0,1.2340896,0.9963105,0
1104223609,1104223009,4028193,32.521667,11.719999,100935.0,1.2341328,0.99629307,0
1104440035,1104439434,4028193,33.10562,11.719999,100928.0,1.2340472,0.9963276,0
1104656333,1104655733,4028193,32.521667,11.719999,100935.0,1.2341328,0.99629307,0
1104872743,1104872141,4028193,32.521667,11.719999,100935.0,1.2341328,0.99629307,0
1105089291,1105088670,4028193,33.10562,11.719999,100928.0,1.2340472,0.9963276,0
1105305687,1105305085,4028193,32.688133,11.719999,100933.0,1.2341083,0.9963029,0
1105500291,1105467225,4028193,32.60358,11.72,100934.0,1.2341205,0.996298,0
1105630235,1105629635,4028193,33.10562,11.719999,100928.0,1.2340472,0.9963276,0
1105846709,1105846107,4028193,33.10562,11.719999,100928.0,1.2340472,0.9963276,0
1106062852,1106062251,4028193,32.437115,11.719999,100936.0,1.2341449,0.9962881,0
1106279308,1106278706,4028193,32.437115,11.719999,100936.0,1.2341449,0.9962881,0
1106495820,1106495218,4028193,31.76861,11.71,100944.0,1.2342861,0.9962312,0
1106701463,1106657561,4028193,32.495243,11.71,100935.29,1.2341796,0.9962742,0
1106820497,1106819895,4028193,31.853163,11.71,100943.0,1.2342739,0.9962361,0
1107036833,1107036221,4028193,32.521667,11.71,100935.0,1.234176,0.9962756,0
1107253257,1107252634,4028193,31.686697,11.71,100945.0,1.2342985,0.9962262,0
1107469427,1107468827,4028193,31.686697,11.71,100945.0,1.2342985,0.9962262,0
1107685842,1107685241,4028193,31.26657,11.71,100950.0,1.2343595,0.9962015,0
1107902293,1107901690,4028193,30.849081,11.71,100955.0,1.2344207,0.9961769,0
1108096998,1108063908,4028193,31.406609,11.704999,100948.336,1.2343608,0.99620104,0
1108226817,1108226217,4028193,31.686697,11.71,100945.0,1.2342985,0.9962262,0
1108443274,1108442672,4028193,31.018188,11.7,100953.0,1.2344395,0.99616927,0
1108659763,1108659156,4028193,31.51759,11.7,100947.0,1.234366,0.9961989,0
1108876236,1108875636,4028193,30.600702,11.7,100958.0,1.2345005,0.99614465,0
1109092695,1109092094,4028193,30.767168,11.7,100956.0,1.2344761,0.9961545,0
1109298361,1109254464,4028193,30.52936,11.699999,100958.86,1.234511,0.9961404,0
1109417399,1109416798,4028193,31.018188,11.7,100953.0,1.2344395,0.99616927,0
1109633691,1109633090,4028193,30.682615,11.7,100957.0,1.2344884,0.99614954,0
1109850144,1109849543,4028193,29.681177,11.69,100969.0,1.2346785,0.9960729,0
1110066625,1110066022,4028193,29.847641,11.69,100967.0,1.2346541,0.9960827,0
1110283074,1110282473,4028193,29.681177,11.69,100969.0,1.2346785,0.9960729,0
1110499561,1110498960,4028193,29.847641,11.69,100967.0,1.2346541,0.9960827,0
1110694091,1110661094,4028193,29.76573,11.69,100968.0,1.2346663,0.9960778,0
1110823923,1110823321,4028193,30.349682,11.69,100961.0,1.2345806,0.99611235,0
1111040236,1111039634,4028193,29.263689,11.679999,100974.0,1.2347829,0.99603075,0
1111256675,1111256049,4028193,29.847641,11.69,100967.0,1.2346541,0.9960827,0
1111473120,1111472519,4028193,28.846203,11.679999,100979.0,1.2348441,0.9960061,0
1111689247,1111688646,4028193,29.012669,11.679999,100977.0,1.2348198,0.99601585,0
1111905702,1111905101,4028193,28.51327,11.679999,100983.0,1.2348931,0.9959863,0
1112013775,1112013155,4028193,28.428717,11.67,100984.0,1.2349486,0.99596393,0
1112230224,1112229623,4028193,28.51327,11.679999,100983.0,1.2348931,0.9959863,0
1112446516,1112445915,4028193,28.595182,11.67,100982.0,1.2349242,0.99597377,0
1112662646,1112662045,4028193,28.761648,11.679999,100980.0,1.2348564,0.9960011,0
1112878917,1112878304,4028193,28.51327,11.67,100983.0,1.2349364,0.9959689,0
1113095390,1113094789,4028193,28.428717,11.67,100984.0,1.2349486,0.99596393,0
1113290155,1113257102,4028193,28.402292,11.665,100984.336,1.2349744,0.99595356,0
1113506401,1113473343,4028193,28.526482,11.66,100982.836,1.2349777,0.9959522,0
1113636248,1113635648,4028193,28.262249,11.66,100986.0,1.2350165,0.9959366,0
1113852667,1113852066,4028193,28.262249,11.66,100986.0,1.2350165,0.9959366,0
1114068965,1114068364,4028193,28.679737,11.66,100981.0,1.2349552,0.99596125,0
1114285266,1114284666,4028193,28.761648,11.66,100980.0,1.234943,0.9959662,0
1114501721,1114501100,4028193,28.679737,11.66,100981.0,1.2349552,0.99596125,0
1114707246,1114663399,4028193,28.595182,11.659999,100982.0,1.2349676,0.99595624,0
1114826095,1114825492,4028193,28.761648,11.66,100980.0,1.234943,0.9959662,0
1115042615,1115042013,4028193,28.428717,11.66,100984.0,1.234992,0.9959464,0
1115259028,1115258426,4028193,28.761648,11.65,100980.0,1.2349864,0.9959487,0
1115475277,1115474675,4028193,28.428717,11.66,100984.0,1.234992,0.9959464,0
1115691755,1115691153,4028193,28.177696,11.66,100987.0,1.2350286,0.9959317,0
